[{"street":"Κεφαλληνίας","number":"11","area":"Μαρούσι","postCode":"15126","position":{"type":"Point","coordinates":[23.82224,38.03716]}},{"street":"Leoforos Kifisias","number":"221","area":"Marousi","postCode":"15124","position":{"type":"Point","coordinates":[23.80924,38.06379]}},{"street":"Leoforos Kifisias","number":"221","area":"Marousi","postCode":"15124","position":{"type":"Point","coordinates":[23.80924,38.06379]}},{"street":"Αλεξάνδρου Παπάγου","area":"Μαρούσι","postCode":"15126","position":{"type":"Point","coordinates":[23.82667,38.05276]}},{"street":"Ηλία Ηλιού","number":"19","area":"Αθήνα","postCode":"11631","position":{"type":"Point","coordinates":[23.7352,37.95914]}},{"street":"Απολλοδώρου","area":"Αθήνα","postCode":"11743","position":{"type":"Point","coordinates":[23.73118,37.96366]}},{"street":"Βύρωνος","number":"9","area":"Αθήνα","postCode":"10558","position":{"type":"Point","coordinates":[23.73013,37.97048]}},{"street":"Βενιαμίν Λέσβιου","number":"1","area":"Μαρούσι","postCode":"15126","position":{"type":"Point","coordinates":[23.82951,38.05925]}},{"street":"Άργους","number":"4","area":"Άγιοι Ανάργυροι-Καματερό","postCode":"13451","position":{"type":"Point","coordinates":[23.72713,38.05032]}},{"street":"Σιβόρων","number":"13","area":"Αθήνα","postCode":"11142","position":{"type":"Point","coordinates":[23.74517,38.02181]}},{"street":"Σεβαστοπούλου","number":"6","area":"Αθήνα","postCode":"11524","position":{"type":"Point","coordinates":[23.75998,37.99382]}},{"street":"Πιττακού","area":"Αθήνα","postCode":"10558","position":{"type":"Point","coordinates":[23.73221,37.97092]}},{"street":"Μιρτσιέφσκυ","number":"1","area":"Αθήνα","postCode":"11741","position":{"type":"Point","coordinates":[23.71529,37.96444]}},{"street":"Πτολεμαίου","number":"3","area":"Αθήνα","postCode":"10442","position":{"type":"Point","coordinates":[23.70172,37.99838]}},{"street":"Μεναίχμου","number":"2","area":"Αθήνα","postCode":"11743","position":{"type":"Point","coordinates":[23.73065,37.96528]}},{"street":"Τσακτάνη","area":"Αθήνα","postCode":"11745","position":{"type":"Point","coordinates":[23.72261,37.95668]}},{"street":"Ιωάννη Σούτσου","number":"3","area":"Αθήνα","postCode":"11474","position":{"type":"Point","coordinates":[23.74384,37.99021]}},{"street":"Πεύκων στην περιοχή Βοτανικού","number":"9","area":"Αθήνα","postCode":"11855","position":{"type":"Point","coordinates":[23.70169,37.97989]}},{"street":"Αγήνορος","area":"Αθήνα","postCode":"11851","position":{"type":"Point","coordinates":[23.71477,37.9737]}},{"street":"Ευσταθίου","number":"10","area":"Αθήνα","postCode":"11524","position":{"type":"Point","coordinates":[23.75995,37.99706]}},{"street":"Παπανικολή","area":"Χαλάνδρι","postCode":"15232, 15234","position":{"type":"Point","coordinates":[23.7987,38.01726]}},{"street":"Ρεθύμνου","number":"13","area":"Αθήνα","postCode":"10682","position":{"type":"Point","coordinates":[23.73291,37.99121]}},{"street":"Μάρνη","number":"14","area":"Αθήνα","postCode":"10433","position":{"type":"Point","coordinates":[23.72972,37.98901]}},{"street":"Σοφοκλέους","number":"12","area":"Αθήνα","postCode":"10559","position":{"type":"Point","coordinates":[23.7288,37.98088]}},{"street":"Αδελφών Φραντζεσκάκη","number":"4","area":"Μαρούσι","postCode":"15126","position":{"type":"Point","coordinates":[23.82541,38.05843]}},{"street":"Κυρρήστου","number":"2","area":"Αθήνα","postCode":"10556","position":{"type":"Point","coordinates":[23.72739,37.97402]}},{"street":"Καλυψούς","number":"9","area":"Αθήνα","postCode":"10435","position":{"type":"Point","coordinates":[23.71399,37.98204]}},{"street":"Ωρίωνος","area":"Αθήνα","postCode":"11364","position":{"type":"Point","coordinates":[23.73896,38.00394]}},{"street":"Διακογιάννη","number":"8","area":"Μαρούσι","postCode":"15126","position":{"type":"Point","coordinates":[23.82039,38.0469]}},{"street":"Αδώνιδος","number":"7","area":"Αθήνα","postCode":"11253","position":{"type":"Point","coordinates":[23.72995,38.00622]}},{"street":"Κρέοντος","number":"3","area":"Αθήνα","postCode":"10442","position":{"type":"Point","coordinates":[23.70689,37.99471]}},{"street":"Άργους","number":"14","area":"Αθήνα","postCode":"10444","position":{"type":"Point","coordinates":[23.7169,37.99179]}},{"street":"Κρίσσης","number":"20","area":"Αθήνα","postCode":"11364","position":{"type":"Point","coordinates":[23.74314,38.0038]}},{"area":"Παιανία","position":{"type":"Point","coordinates":[23.87037,37.98234]}},{"street":"Ποικίλης","number":"8","area":"Αθήνα","postCode":"10555","position":{"type":"Point","coordinates":[23.72467,37.9747]}},{"street":"Λουί Παστέρ","number":"17","area":"Μαρούσι","postCode":"15123","position":{"type":"Point","coordinates":[23.78842,38.02669]}},{"street":"Στρωμνίτσης","number":"3","area":"Αθήνα","postCode":"11362","position":{"type":"Point","coordinates":[23.73944,37.99651]}},{"street":"Αθανασίας","number":"16","area":"Αθήνα","postCode":"11635","position":{"type":"Point","coordinates":[23.74497,37.96886]}},{"street":"Ηφαίστου","number":"11","area":"Αθήνα","postCode":"10555","position":{"type":"Point","coordinates":[23.72483,37.97612]}},{"street":"Εΰντου","area":"Αθήνα","postCode":"11636","position":{"type":"Point","coordinates":[23.73995,37.96529]}},{"street":"Προύσης","number":"17","area":"Αθήνα","postCode":"10440","position":{"type":"Point","coordinates":[23.72387,37.99403]}},{"street":"Στρατούλα","number":"14","area":"Αθήνα","postCode":"11744","position":{"type":"Point","coordinates":[23.72235,37.95025]}},{"street":"Πανόρμου","number":"8","area":"Αθήνα","postCode":"11523","position":{"type":"Point","coordinates":[23.7582,37.98814]}},{"street":"Αυγερινού","number":"5","area":"Αθήνα","postCode":"11522","position":{"type":"Point","coordinates":[23.75563,37.99212]}},{"street":"Κρεούσης","number":"15","area":"Αθήνα","postCode":"11854","position":{"type":"Point","coordinates":[23.7096,37.97748]}},{"street":"Λυσιστράτης","area":"Χαλάνδρι","postCode":"15234","position":{"type":"Point","coordinates":[23.81604,38.02425]}},{"street":"Νικοσθένους","number":"7","area":"Αθήνα","postCode":"11635","position":{"type":"Point","coordinates":[23.74525,37.96839]}},{"street":"Βρανά","number":"5","area":"Αθήνα","postCode":"11525","position":{"type":"Point","coordinates":[23.77074,37.99579]}},{"street":"Δευκαλίωνος","number":"1","area":"Αθήνα","postCode":"11254","position":{"type":"Point","coordinates":[23.73447,38.01047]}},{"street":"Ύδρας","number":"15","area":"Μαρούσι","postCode":"15122","position":{"type":"Point","coordinates":[23.79539,38.05161]}},{"street":"Κωστή Παλαμά","number":"15","area":"Αθήνα","postCode":"11141","position":{"type":"Point","coordinates":[23.73644,38.01713]}},{"street":"Δημοκρίτου","area":"Μαρούσι","postCode":"15123","position":{"type":"Point","coordinates":[23.79543,38.03694]}},{"street":"Λάμπωνος","area":"Αθήνα","postCode":"11143","position":{"type":"Point","coordinates":[23.73764,38.02957]}},{"street":"Ελευθερίου Βενιζέλου","number":"44","area":"Αθήνα","postCode":"10679","position":{"type":"Point","coordinates":[23.73168,37.98196]}},{"street":"Κοκκερέλ","number":"11","area":"Αθήνα","postCode":"11364","position":{"type":"Point","coordinates":[23.74683,38.0077]}},{"street":"Προαιρεσίου","number":"8","area":"Αθήνα","postCode":"11636","position":{"type":"Point","coordinates":[23.74237,37.96454]}},{"street":"Αγίου Ιωάννη Καλυβίτου","number":"11","area":"Λέσβος","postCode":"81132","position":{"type":"Point","coordinates":[26.55025,39.10074]}},{"street":"Μάρκου Δράκου","area":"Αθήνα","postCode":"11476","position":{"type":"Point","coordinates":[23.75297,38.00018]}},{"street":"Χατζή","area":"Αθήνα","postCode":"11524","position":{"type":"Point","coordinates":[23.76408,38.00061]}},{"street":"Πλατεία Κανάρη","area":"Αθήνα","postCode":"11361, 11364","position":{"type":"Point","coordinates":[23.74183,38.00304]}},{"street":"Καλαμακίου","number":"16","area":"Χαλάνδρι","postCode":"15231","position":{"type":"Point","coordinates":[23.8019,38.01234]}},{"street":"Χίμαιρας","area":"Αθήνα","postCode":"11363","position":{"type":"Point","coordinates":[23.74944,37.99924]}},{"street":"Παναχαϊκού","number":"10","area":"Χαλάνδρι","postCode":"15234","position":{"type":"Point","coordinates":[23.81411,38.02751]}},{"street":"Κυψέλης","number":"8","area":"Αθήνα","postCode":"11362","position":{"type":"Point","coordinates":[23.73509,37.99627]}},{"street":"Βαρνούντος","area":"Αθήνα","postCode":"11741","position":{"type":"Point","coordinates":[23.71387,37.96427]}},{"street":"Πάτμου","number":"7","area":"Αθήνα","postCode":"11253","position":{"type":"Point","coordinates":[23.73307,38.00671]}},{"street":"Βεβεκίου","number":"7","area":"Αθήνα","postCode":"11363","position":{"type":"Point","coordinates":[23.74925,37.99903]}},{"street":"Πάροδος Αλέξανδρου Παναγούλη","area":"Μαρούσι","postCode":"15126","position":{"type":"Point","coordinates":[23.82435,38.05441]}},{"street":"Ηλία Ρογκάκου","number":"13","area":"Αθήνα","postCode":"10672","position":{"type":"Point","coordinates":[23.74054,37.98124]}},{"street":"Γιάννη Σταθά","number":"8","area":"Αθήνα","postCode":"10672","position":{"type":"Point","coordinates":[23.73797,37.98134]}},{"street":"Πλατεία Αγίου Γεωργίου Καρύτση","number":"8","area":"Αθήνα","postCode":"10561","position":{"type":"Point","coordinates":[23.73139,37.97829]}},{"street":"Αρισταγόρα","area":"Αθήνα","postCode":"11851","position":{"type":"Point","coordinates":[23.71529,37.97217]}},{"street":"Τύχης","number":"1","area":"Χαλάνδρι","postCode":"15233","position":{"type":"Point","coordinates":[23.80597,38.03129]}},{"street":"Φιλελλήνων","number":"3","area":"Αθήνα","postCode":"10557","position":{"type":"Point","coordinates":[23.73418,37.97465]}},{"street":"Αιτωλίας","number":"18","area":"Αθήνα","postCode":"11526","position":{"type":"Point","coordinates":[23.76307,37.98716]}},{"street":"Βόλου","number":"9","area":"Χαλάνδρι","postCode":"15234","position":{"type":"Point","coordinates":[23.82483,38.02407]}},{"street":"Σκρα στην περιοχή Άνω Πάτημα","area":"Χαλάνδρι","postCode":"15238","position":{"type":"Point","coordinates":[23.85356,38.04077]}},{"street":"Προύσης","area":"Χαλάνδρι","postCode":"15233","position":{"type":"Point","coordinates":[23.80688,38.02852]}},{"street":"Μαζαρακίου","number":"11","area":"Μαρούσι","postCode":"15126","position":{"type":"Point","coordinates":[23.8218,38.04888]}},{"street":"Πλατεία Γκύζη","number":"1","area":"Αθήνα","postCode":"11474","position":{"type":"Point","coordinates":[23.74944,37.99342]}},{"street":"Ιππολύτου","number":"5","area":"Μαρούσι","postCode":"15125","position":{"type":"Point","coordinates":[23.81366,38.04264]}},{"street":"Ναυαρίνου","number":"2","area":"Μαρούσι","postCode":"15122","position":{"type":"Point","coordinates":[23.79699,38.05794]}},{"street":"Αμβροσίου Φραντζή","number":"13","area":"Αθήνα","postCode":"11743","position":{"type":"Point","coordinates":[23.72636,37.96173]}},{"street":"Σέλλεϋ","number":"10","area":"Αθήνα","postCode":"10558","position":{"type":"Point","coordinates":[23.73009,37.97159]}},{"street":"Λαγκαδά","number":"16","area":"Αθήνα","postCode":"11855","position":{"type":"Point","coordinates":[23.70496,37.97765]}},{"street":"Καλογερά","number":"7","area":"Αθήνα","postCode":"11361","position":{"type":"Point","coordinates":[23.7404,38.00155]}},{"street":"Ευρώτα","number":"1","area":"Αθήνα","postCode":"11527","position":{"type":"Point","coordinates":[23.76153,37.98419]}},{"street":"Αστραπόγιαννου","number":"6","area":"Αθήνα","postCode":"11526","position":{"type":"Point","coordinates":[23.77106,37.99332]}},{"street":"Τάκη","number":"13","area":"Αθήνα","postCode":"10554","position":{"type":"Point","coordinates":[23.72401,37.97852]}},{"street":"Νικομήδους","number":"1","area":"Αθήνα","postCode":"10442","position":{"type":"Point","coordinates":[23.70456,37.99899]}},{"street":"Δωριέων","number":"14","area":"Αθήνα","postCode":"11852","position":{"type":"Point","coordinates":[23.71042,37.968]}},{"street":"Αίνου","number":"9","area":"Αθήνα","postCode":"11631","position":{"type":"Point","coordinates":[23.73655,37.95715]}},{"street":"Λεωφόρος Αλεξάνδρας","number":"20","area":"Αθήνα","postCode":"10682","position":{"type":"Point","coordinates":[23.73417,37.99115]}},{"street":"Ρίζου Ροϊλού","number":"10","area":"Αθήνα","postCode":"11141","position":{"type":"Point","coordinates":[23.74343,38.01477]}},{"street":"Καλαμίδος","number":"3","area":"Αθήνα","postCode":"10440","position":{"type":"Point","coordinates":[23.72189,37.99507]}},{"street":"Αρχιμήδους","area":"Χαλάνδρι","postCode":"15238","position":{"type":"Point","coordinates":[23.83861,38.02644]}},{"street":"Βάσιου","number":"10","area":"Χαλάνδρι","postCode":"15238","position":{"type":"Point","coordinates":[23.85374,38.0387]}},{"street":"Κραναού","area":"Αθήνα","postCode":"10553","position":{"type":"Point","coordinates":[23.72265,37.97915]}},{"street":"Ωμόλ","number":"13","area":"Αθήνα","postCode":"11143","position":{"type":"Point","coordinates":[23.73366,38.02258]}},{"street":"Κυκλαμίνων","number":"6","area":"Χαλάνδρι","postCode":"15238","position":{"type":"Point","coordinates":[23.84594,38.03073]}},{"street":"Αλκυονίας","number":"12","area":"Αθήνα","postCode":"11631","position":{"type":"Point","coordinates":[23.73872,37.95964]}},{"street":"Ευρώτα","area":"Χαλάνδρι","postCode":"15232","position":{"type":"Point","coordinates":[23.80169,38.01483]}},{"street":"Μηριώνου","area":"Αθήνα","postCode":"10441","position":{"type":"Point","coordinates":[23.70781,37.98823]}},{"street":"Άρεως","number":"12","area":"Μαρούσι","postCode":"15122","position":{"type":"Point","coordinates":[23.80215,38.06186]}},{"street":"Χάρακος","area":"Αθήνα","postCode":"10444","position":{"type":"Point","coordinates":[23.71313,37.99652]}},{"street":"Αργυροκάστρου","number":"18","area":"Διόνυσος","postCode":"14572","position":{"type":"Point","coordinates":[23.86222,38.11211]}},{"street":"Νικόλαος Νικηφορίδη","number":"5","area":"Αθήνα","postCode":"11633","position":{"type":"Point","coordinates":[23.75171,37.96442]}},{"street":"Κλεομβρότου","number":"13","area":"Αθήνα","postCode":"10435","position":{"type":"Point","coordinates":[23.7163,37.98007]}},{"street":"Λευκάδος","number":"1","area":"Μαρούσι","postCode":"15126","position":{"type":"Point","coordinates":[23.82093,38.03498]}},{"street":"Πρωταγόρα","area":"Μαρούσι","postCode":"15124","position":{"type":"Point","coordinates":[23.79581,38.04102]}},{"street":"Σπετσών","number":"20","area":"Αθήνα","postCode":"11362","position":{"type":"Point","coordinates":[23.73695,37.99606]}},{"street":"Πάροδος Αγίου Σάββα","area":"Αθήνα","postCode":"10447","position":{"type":"Point","coordinates":[23.6996,37.98946]}},{"street":"Πλατεία Ελευθερωτών","area":"Χαλάνδρι","postCode":"15232","position":{"type":"Point","coordinates":[23.7978,38.02133]}},{"street":"Αθ. Φιλίου","number":"10","area":"Αθήνα","postCode":"11524","position":{"type":"Point","coordinates":[23.76341,38.0018]}},{"street":"Έξοδος 11-Λεωφόρος Κηφισίας & Προς Λεωφόρο Κηφισίας-Αθήνα","area":"Μαρούσι","postCode":"15124","position":{"type":"Point","coordinates":[23.8018,38.04231]}},{"street":"Ανθουσών","number":"7","area":"Διόνυσος","postCode":"14572","position":{"type":"Point","coordinates":[23.86297,38.10578]}},{"street":"Ολυμπιονίκη Παπασυμεών","area":"Μαρούσι","postCode":"15126","position":{"type":"Point","coordinates":[23.82596,38.05158]}},{"street":"Μιαούλη","number":"5","area":"Μαρούσι","postCode":"15122","position":{"type":"Point","coordinates":[23.80116,38.05493]}},{"street":"Πεύκων στην περιοχή Βοτανικού","number":"8","area":"Αθήνα","postCode":"11855","position":{"type":"Point","coordinates":[23.7017,37.97985]}},{"street":"Αντιστράτου","number":"17","area":"Αθήνα","postCode":"11853","position":{"type":"Point","coordinates":[23.70509,37.9661]}},{"street":"Διδύμου","number":"7","area":"Αθήνα","postCode":"10434","position":{"type":"Point","coordinates":[23.72751,37.99222]}},{"street":"Περικλέους","number":"19","area":"Χαλάνδρι","postCode":"15232","position":{"type":"Point","coordinates":[23.79762,38.01842]}},{"street":"Μανώλη Καλομοίρη","number":"7","area":"Ηράκλειο","postCode":"71409","position":{"type":"Point","coordinates":[25.1501,35.32018]}},{"street":"Νικηφορίδη","number":"12","area":"Παύλος Μελάς","postCode":"56437","position":{"type":"Point","coordinates":[22.93358,40.67792]}},{"street":"Ρουμπέση","number":"15","area":"Αθήνα","postCode":"11744","position":{"type":"Point","coordinates":[23.72653,37.95686]}},{"street":"Αλκίνοου","area":"Χαλάνδρι","postCode":"15238","position":{"type":"Point","coordinates":[23.84038,38.03302]}},{"street":"Γαρδικίου","number":"12","area":"Αθήνα","postCode":"10443","position":{"type":"Point","coordinates":[23.71308,37.99909]}},{"street":"Αντιπάρου","area":"Αθήνα","postCode":"11361","position":{"type":"Point","coordinates":[23.73589,37.99786]}},{"street":"Καραγιώργη Σερβίας","number":"10","area":"Αθήνα","postCode":"10563","position":{"type":"Point","coordinates":[23.73311,37.97651]}},{"street":"Διδυμοτείχου","number":"9","area":"Αθήνα","postCode":"10444","position":{"type":"Point","coordinates":[23.71912,37.9935]}},{"street":"Πάρνηθος","number":"3","area":"Αθήνα","postCode":"11364","position":{"type":"Point","coordinates":[23.74349,38.00524]}},{"street":"Περεσιάδου","number":"11","area":"Αθήνα","postCode":"11141","position":{"type":"Point","coordinates":[23.74182,38.01465]}},{"street":"Αιγείρας","area":"Αθήνα","postCode":"10444","position":{"type":"Point","coordinates":[23.71918,37.9914]}},{"street":"Λάζαρου Σώχου","area":"Αθήνα","postCode":"11525","position":{"type":"Point","coordinates":[23.77051,37.9981]}},{"street":"Θυμβρίου","number":"9","area":"Αθήνα","postCode":"11142","position":{"type":"Point","coordinates":[23.74544,38.02947]}},{"street":"Πέλλης","number":"19","area":"Χαλάνδρι","postCode":"15234","position":{"type":"Point","coordinates":[23.81783,38.02787]}},{"street":"Σοφιανού","area":"Αθήνα","postCode":"11741","position":{"type":"Point","coordinates":[23.71864,37.96251]}},{"street":"Κυψέλης","number":"34","area":"Αθήνα","postCode":"11362","position":{"type":"Point","coordinates":[23.7374,37.99769]}},{"street":"Μονής Πετράκη","number":"10","area":"Αθήνα","postCode":"11521","position":{"type":"Point","coordinates":[23.75066,37.97868]}},{"street":"Κεραμεικού","number":"9","area":"Μαρούσι","postCode":"15125","position":{"type":"Point","coordinates":[23.80037,38.03323]}},{"street":"Ολύμπου","number":"19","area":"Μαρούσι","postCode":"15123","position":{"type":"Point","coordinates":[23.78501,38.03407]}},{"street":"Φιλικής Εταιρείας","number":"10","area":"Χαλάνδρι","postCode":"15232","position":{"type":"Point","coordinates":[23.78991,38.01733]}},{"street":"Δρυός","number":"13","area":"Χαλάνδρι","postCode":"15238","position":{"type":"Point","coordinates":[23.85043,38.03416]}},{"street":"Θυάμιδος","number":"11","area":"Αθήνα","postCode":"10444","position":{"type":"Point","coordinates":[23.71681,37.99131]}},{"street":"Νεϊγύ","number":"15","area":"Αθήνα","postCode":"11143","position":{"type":"Point","coordinates":[23.73379,38.0231]}},{"street":"Αίσωνος","number":"7","area":"Αθήνα","postCode":"10435","position":{"type":"Point","coordinates":[23.71727,37.98377]}},{"street":"Ανθέων","area":"Διόνυσος","postCode":"14572","position":{"type":"Point","coordinates":[23.86248,38.11075]}},{"street":"Διός","number":"13","area":"Μαρούσι","postCode":"15126","position":{"type":"Point","coordinates":[23.82438,38.04565]}},{"street":"Αρέθα","number":"5","area":"Αθήνα","postCode":"11144","position":{"type":"Point","coordinates":[23.72985,38.0158]}},{"street":"Αγίας Ειρήνης","number":"8","area":"Αθήνα","postCode":"10551","position":{"type":"Point","coordinates":[23.72694,37.97713]}},{"street":"Βορείου Ηπείρου","number":"9","area":"Μαρούσι","postCode":"15126","position":{"type":"Point","coordinates":[23.81353,38.05611]}},{"street":"Αθανασίου Διάκου","number":"19","area":"Χαλκίδα","postCode":"34131","position":{"type":"Point","coordinates":[23.5856,38.47154]}},{"street":"Σανταρόζα","area":"Αθήνα","postCode":"10564","position":{"type":"Point","coordinates":[23.73101,37.98258]}},{"street":"Πλατεία Αγίου Θωμά","number":"7","area":"Αθήνα","postCode":"11364","position":{"type":"Point","coordinates":[23.74679,38.00695]}},{"street":"Θέμελη","area":"Αθήνα","postCode":"11473","position":{"type":"Point","coordinates":[23.73954,37.98991]}},{"street":"Κώστα Βάρναλη","area":"Χαλάνδρι","postCode":"15233","position":{"type":"Point","coordinates":[23.80013,38.02374]}},{"street":"Παύλου Μελά","number":"8","area":"Διόνυσος","postCode":"14572","position":{"type":"Point","coordinates":[23.86033,38.11122]}},{"street":"Κωνσταντινουπόλεως","number":"18","area":"Διόνυσος","postCode":"14572","position":{"type":"Point","coordinates":[23.8637,38.11139]}},{"street":"Αμοργού","number":"7","area":"Χαλάνδρι","postCode":"15232","position":{"type":"Point","coordinates":[23.7936,38.01854]}},{"street":"Πάργας","number":"1","area":"Χαλάνδρι","postCode":"15234","position":{"type":"Point","coordinates":[23.81293,38.01943]}},{"street":"Θεόδωρου Δηληγιάννη","number":"2","area":"Αθήνα","postCode":"10437","position":{"type":"Point","coordinates":[23.72142,37.98625]}},{"street":"Αθανάσιου Ρουσόπουλου","area":"Αθήνα","postCode":"11524","position":{"type":"Point","coordinates":[23.76293,38.00006]}},{"street":"Ζαρίφη","area":"Αθήνα","postCode":"11474","position":{"type":"Point","coordinates":[23.74756,37.98979]}},{"street":"Νικηταρά","number":"8","area":"Χαλάνδρι","postCode":"15232","position":{"type":"Point","coordinates":[23.80572,38.0175]}},{"street":"Αριστοδήμου","number":"13","area":"Αθήνα","postCode":"10676","position":{"type":"Point","coordinates":[23.74667,37.98034]}},{"street":"Ψηλορείτη","area":"Αθήνα","postCode":"10439","position":{"type":"Point","coordinates":[23.72045,37.99036]}},{"street":"Αγίας Άννης","area":"Μαρούσι","postCode":"15122","position":{"type":"Point","coordinates":[23.79525,38.05565]}},{"street":"Δεριγνύ","number":"8","area":"Αθήνα","postCode":"10434","position":{"type":"Point","coordinates":[23.73259,37.99468]}},{"street":"Ηφαίστου","number":"11","area":"Αθήνα","postCode":"10555","position":{"type":"Point","coordinates":[23.72483,37.97612]}},{"street":"Κωνσταντινουπόλεως","number":"20","area":"Μαρούσι","postCode":"15124","position":{"type":"Point","coordinates":[23.80617,38.06393]}},{"street":"Ιπποκράτους","number":"1","area":"Μαρούσι","postCode":"15123","position":{"type":"Point","coordinates":[23.78812,38.02771]}},{"street":"Θεσσαλονίκης","number":"10","area":"Αθήνα","postCode":"11854","position":{"type":"Point","coordinates":[23.71609,37.97741]}},{"street":"Δήμητρας","number":"15","area":"Μαρούσι","postCode":"15124","position":{"type":"Point","coordinates":[23.80647,38.05492]}},null,{"street":"Σωσικλέους","number":"18","area":"Αθήνα","postCode":"11632","position":{"type":"Point","coordinates":[23.74498,37.95903]}},{"street":"Αβδήρων","number":"16","area":"Αθήνα","postCode":"10443","position":{"type":"Point","coordinates":[23.72045,38.00647]}},{"street":"Ηρακλείτου","number":"20","area":"Χαλάνδρι","postCode":"15238","position":{"type":"Point","coordinates":[23.84092,38.02525]}},{"street":"Πολυδάμαντος","number":"13","area":"Αθήνα","postCode":"11635","position":{"type":"Point","coordinates":[23.74424,37.96669]}},{"street":"Ρωμανού Μελωδού","number":"3","area":"Αθήνα","postCode":"11471","position":{"type":"Point","coordinates":[23.74394,37.9854]}},{"street":"Άνδρου στην περιοχή Άνω Πάτημα","number":"18","area":"Χαλάνδρι","postCode":"15238","position":{"type":"Point","coordinates":[23.84786,38.04029]}},{"street":"Αντιγόνης","number":"19","area":"Χαλάνδρι","postCode":"15232","position":{"type":"Point","coordinates":[23.80283,38.01445]}},{"street":"Σαπφούς","number":"7","area":"Μαρούσι","postCode":"15126","position":{"type":"Point","coordinates":[23.82642,38.05847]}},{"street":"Ανδρέα Κάλβου","number":"16","area":"Αθήνα","postCode":"11473","position":{"type":"Point","coordinates":[23.74372,37.99256]}},{"street":"Ηφαίστου","number":"9","area":"Αθήνα","postCode":"10555","position":{"type":"Point","coordinates":[23.72486,37.97614]}},{"street":"Ιθάκης","number":"17","area":"Αθήνα","postCode":"11257","position":{"type":"Point","coordinates":[23.7346,37.9977]}},{"street":"Φωκίωνος Νέγρη","number":"15","area":"Αθήνα","postCode":"11257","position":{"type":"Point","coordinates":[23.73504,38.00098]}},{"street":"Μαλάμου","area":"Αθήνα","postCode":"11636","position":{"type":"Point","coordinates":[23.73574,37.96538]}},{"street":"Σκουφά","area":"Μαρούσι","postCode":"15125, 15126","position":{"type":"Point","coordinates":[23.81873,38.03671]}},{"street":"Μικρομάνης","number":"5","area":"Αθήνα","postCode":"11523","position":{"type":"Point","coordinates":[23.76567,37.99233]}},{"street":"Αλκμήνης","number":"19","area":"Αθήνα","postCode":"11854","position":{"type":"Point","coordinates":[23.70876,37.97322]}},{"street":"Γενναδίου","number":"14","area":"Χαλάνδρι","postCode":"15231","position":{"type":"Point","coordinates":[23.79599,38.0094]}},{"street":"Κολοφώνος","number":"13","area":"Αθήνα","postCode":"10446","position":{"type":"Point","coordinates":[23.7265,38.00143]}},{"street":"Στησιχόρου","number":"5","area":"Αθήνα","postCode":"10674","position":{"type":"Point","coordinates":[23.74176,37.97453]}},{"street":"Μαργαρίτη","number":"9","area":"Αθήνα","postCode":"11743","position":{"type":"Point","coordinates":[23.73196,37.96477]}},{"street":"Μάρως Στάμου","area":"Αθήνα","postCode":"11852","position":{"type":"Point","coordinates":[23.71004,37.96485]}},{"street":"Αγίου Πέτρου","number":"5","area":"Αθήνα","postCode":"10446","position":{"type":"Point","coordinates":[23.7271,37.99852]}},{"street":"Αγίας Ζώνης","number":"1","area":"Αθήνα","postCode":"11361","position":{"type":"Point","coordinates":[23.73704,38.00133]}},{"street":"Ζαΐμη","number":"7","area":"Αθήνα","postCode":"10682","position":{"type":"Point","coordinates":[23.73369,37.98749]}},{"street":"Αγίου Λουκά","number":"2","area":"Αθήνα","postCode":"11254","position":{"type":"Point","coordinates":[23.73496,38.0105]}},{"street":"Πάροδος Αντιγόνης","area":"Αθήνα","postCode":"10443","position":{"type":"Point","coordinates":[23.71318,38.0035]}},{"street":"Μπερόβου","number":"10","area":"Αθήνα","postCode":"11363","position":{"type":"Point","coordinates":[23.74758,37.9989]}},{"street":"Υψηλάντου","number":"14","area":"Μαρούσι","postCode":"15122","position":{"type":"Point","coordinates":[23.79977,38.05599]}},{"street":"Ευκλείδου","number":"10","area":"Αθήνα","postCode":"10442","position":{"type":"Point","coordinates":[23.71151,37.99522]}},{"street":"Σάμης","number":"5","area":"Αθήνα","postCode":"11142","position":{"type":"Point","coordinates":[23.74115,38.02347]}},{"street":"Πλάτωνος","number":"6","area":"Χαλάνδρι","postCode":"15234","position":{"type":"Point","coordinates":[23.80049,38.02207]}},{"street":"Διστόμου","area":"Μαρούσι","postCode":"15125","position":{"type":"Point","coordinates":[23.80608,38.0425]}},null,{"street":"Ερμού","number":"16","area":"Μαρούσι","postCode":"15124","position":{"type":"Point","coordinates":[23.80765,38.05533]}},{"street":"Καλλιγά","number":"15","area":"Αθήνα","postCode":"11473","position":{"type":"Point","coordinates":[23.74341,37.99115]}},{"street":"Αιακού","number":"18","area":"Αθήνα","postCode":"10446","position":{"type":"Point","coordinates":[23.72821,38.00677]}},{"street":"Χαονίας","number":"1","area":"Αθήνα","postCode":"10441","position":{"type":"Point","coordinates":[23.71601,37.98893]}},{"street":"Πλάτωνος","area":"Μαρούσι","postCode":"15124","position":{"type":"Point","coordinates":[23.80742,38.05831]}},{"street":"Πανός Σπηλαίου","number":"19","area":"Μαραθώνας","postCode":"19007","position":{"type":"Point","coordinates":[23.95998,38.15361]}},{"street":"Παναγιώτη Κυριακού","number":"4","area":"Μαρούσι","postCode":"15124","position":{"type":"Point","coordinates":[23.80624,38.05685]}},{"street":"Μακεδονίας","number":"3","area":"Μαρούσι","postCode":"15122","position":{"type":"Point","coordinates":[23.80267,38.06421]}},{"street":"Κιλκίς","number":"8","area":"Χαλάνδρι","postCode":"15232","position":{"type":"Point","coordinates":[23.79664,38.01533]}},{"street":"Χάλκης","number":"4","area":"Αθήνα","postCode":"11253","position":{"type":"Point","coordinates":[23.73005,38.00838]}},{"street":"Αβίας","area":"Αθήνα","postCode":"11142","position":{"type":"Point","coordinates":[23.74538,38.02504]}},{"street":"Ησιόνης","number":"10","area":"Αθήνα","postCode":"11853","position":{"type":"Point","coordinates":[23.70714,37.9665]}},{"street":"Ι. Αποστολοπούλου","number":"59","area":"Χαλάνδρι","postCode":"15231","position":{"type":"Point","coordinates":[23.78877,38.00967]}},{"street":"Κλεοβούλου","number":"15","area":"Αθήνα","postCode":"11744","position":{"type":"Point","coordinates":[23.72813,37.95969]}},{"street":"Σοφοκλέους","number":"4","area":"Αθήνα","postCode":"10551","position":{"type":"Point","coordinates":[23.73003,37.98065]}},{"street":"Αμφίωνος","area":"Αθήνα","postCode":"11631","position":{"type":"Point","coordinates":[23.74282,37.95702]}},{"street":"Τζίνα Μπαχάουερ","number":"7","area":"Χαλάνδρι","postCode":"15238","position":{"type":"Point","coordinates":[23.84356,38.0306]}},{"street":"Αδαμάντιου Κοραή","number":"1","area":"Μαρούσι","postCode":"15126","position":{"type":"Point","coordinates":[23.82152,38.04046]}},{"street":"Ερατούς","number":"13","area":"Αθήνα","postCode":"11364","position":{"type":"Point","coordinates":[23.74601,38.00425]}},{"street":"Αρισταγόρα","number":"9","area":"Χαλάνδρι","postCode":"15238","position":{"type":"Point","coordinates":[23.84312,38.03229]}},{"street":"Φθιώτιδος","number":"7","area":"Αθήνα","postCode":"11523","position":{"type":"Point","coordinates":[23.76246,37.98858]}},{"street":"Ναούσης","number":"19","area":"Αθήνα","postCode":"10447","position":{"type":"Point","coordinates":[23.71093,37.9844]}},{"street":"Γαληνού","number":"17","area":"Αθήνα","postCode":"11741","position":{"type":"Point","coordinates":[23.72004,37.96447]}},{"street":"Αχιλλέα Παράσχου","number":"5","area":"Χαλάνδρι","postCode":"15232","position":{"type":"Point","coordinates":[23.79643,38.02174]}},{"street":"Θεσσαλονίκης","number":"12","area":"Αθήνα","postCode":"11854","position":{"type":"Point","coordinates":[23.71594,37.97736]}},{"street":"Αναξάρχου","number":"10","area":"Αθήνα","postCode":"11631","position":{"type":"Point","coordinates":[23.73831,37.95957]}},{"street":"Κοσμά Αιτωλού","area":"Καρπενήσι","postCode":"36100","position":{"type":"Point","coordinates":[21.79436,38.91514]}},{"street":"Πρατίνου","number":"17","area":"Αθήνα","postCode":"11634","position":{"type":"Point","coordinates":[23.74795,37.96889]}},{"street":"Νεφέλης","area":"Διόνυσος","postCode":"14572","position":{"type":"Point","coordinates":[23.86291,38.1179]}},{"street":"Ιδομενέως","number":"9","area":"Αθήνα","postCode":"11853","position":{"type":"Point","coordinates":[23.70489,37.96998]}},{"street":"Βλάση","number":"4","area":"Αθήνα","postCode":"11744","position":{"type":"Point","coordinates":[23.72921,37.95679]}},{"street":"Ιωάννη Χατζηδάκη","number":"9","area":"Αθήνα","postCode":"11144","position":{"type":"Point","coordinates":[23.72952,38.01363]}},{"street":"Τιμάνθους","number":"17","area":"Αθήνα","postCode":"11743","position":{"type":"Point","coordinates":[23.73156,37.96081]}},{"street":"Γαβριηλίδου","number":"15","area":"Αθήνα","postCode":"11141","position":{"type":"Point","coordinates":[23.73814,38.01877]}},{"street":"Κάσου","area":"Χαλάνδρι","postCode":"15233","position":{"type":"Point","coordinates":[23.8017,38.03087]}},{"street":"Δάφνης","number":"19","area":"Μαρούσι","postCode":"15126","position":{"type":"Point","coordinates":[23.81573,38.05227]}},{"street":"Βύρωνος στην περιοχή Νέο τέρμα","number":"19","area":"Μαρούσι","postCode":"15122","position":{"type":"Point","coordinates":[23.80129,38.05633]}},{"street":"Ίριδος","number":"11","area":"Χαλάνδρι","postCode":"15232","position":{"type":"Point","coordinates":[23.80803,38.01414]}},{"street":"Κυρίλλου Λουκάρεως","number":"7","area":"Αθήνα","postCode":"11471","position":{"type":"Point","coordinates":[23.7515,37.98782]}},{"street":"Κυκλάδων","number":"7","area":"Χαλάνδρι","postCode":"15234","position":{"type":"Point","coordinates":[23.81783,38.02992]}},{"street":"Αλεξανδρείας","number":"4","area":"Αθήνα","postCode":"10444","position":{"type":"Point","coordinates":[23.71627,37.99375]}},{"street":"Γ. Πιτταρά","area":"Μαρούσι","postCode":"15124","position":{"type":"Point","coordinates":[23.79404,38.04177]}},{"street":"Αθηνάς","number":"2","area":"Διόνυσος","postCode":"14572","position":{"type":"Point","coordinates":[23.86421,38.11141]}},{"street":"Θράκης","number":"9","area":"Μαρούσι","postCode":"15124","position":{"type":"Point","coordinates":[23.80477,38.06374]}},{"street":"Μοράβας","number":"4","area":"Αθήνα","postCode":"10445","position":{"type":"Point","coordinates":[23.72186,38.00599]}},{"street":"Ιγγλέση","number":"14","area":"Αθήνα","postCode":"11743","position":{"type":"Point","coordinates":[23.7291,37.96402]}},{"street":"Σπύρου Βικάτου","number":"4","area":"Αθήνα","postCode":"11524","position":{"type":"Point","coordinates":[23.76535,37.99535]}},{"street":"Σταγείρων","number":"8","area":"Αθήνα","postCode":"11522","position":{"type":"Point","coordinates":[23.75833,37.99336]}},{"street":"Ορλώφ","number":"14","area":"Αθήνα","postCode":"11741","position":{"type":"Point","coordinates":[23.72146,37.96474]}},{"street":"Νικομάχου","number":"13","area":"Αθήνα","postCode":"11636","position":{"type":"Point","coordinates":[23.73594,37.9599]}},{"street":"Νικολάου Γεννηματά","number":"6","area":"Αθήνα","postCode":"11524","position":{"type":"Point","coordinates":[23.76296,37.99391]}},{"street":"Τσαμαδού","number":"10","area":"Αθήνα","postCode":"10683","position":{"type":"Point","coordinates":[23.73528,37.98761]}},{"street":"Μεϊντάνη","number":"1","area":"Αθήνα","postCode":"11741","position":{"type":"Point","coordinates":[23.72105,37.96309]}},{"street":"Αμήτορος","area":"Αθήνα","postCode":"11631","position":{"type":"Point","coordinates":[23.7395,37.95976]}},{"street":"Αδριανού","area":"Χαλάνδρι","postCode":"15234","position":{"type":"Point","coordinates":[23.82912,38.02472]}},{"street":"Νορντάου","number":"16","area":"Αθήνα","postCode":"11474","position":{"type":"Point","coordinates":[23.74863,37.99258]}},{"street":"Παναγιώτη Κυριακού","number":"17","area":"Αθήνα","postCode":"11521","position":{"type":"Point","coordinates":[23.75487,37.98574]}},{"street":"Κωνσταντίνου Καβάφη","number":"18","area":"Μαρούσι","postCode":"15126","position":{"type":"Point","coordinates":[23.82518,38.05686]}},{"street":"Οιχαλίας","number":"3","area":"Αθήνα","postCode":"11474","position":{"type":"Point","coordinates":[23.75045,37.99418]}},{"street":"Λεωφόρος Συγγρού","area":"Αθήνα","postCode":"11743","position":{"type":"Point","coordinates":[23.73004,37.96707]}},{"street":"Τημένους","number":"2","area":"Αθήνα","postCode":"11143","position":{"type":"Point","coordinates":[23.73903,38.03106]}},{"street":"Κ. Παταράκη","number":"1","area":"Αθήνα","postCode":"11476","position":{"type":"Point","coordinates":[23.75701,37.99789]}},{"street":"Ήβης","number":"13","area":"Χαλάνδρι","postCode":"15234","position":{"type":"Point","coordinates":[23.81294,38.02525]}},{"street":"Νισύρου","number":"1","area":"Αθήνα","postCode":"10438","position":{"type":"Point","coordinates":[23.72082,37.98857]}},{"street":"Καραπαναγιώτου","number":"18","area":"Αθήνα","postCode":"11476","position":{"type":"Point","coordinates":[23.75762,37.99834]}},{"street":"Βασίλη Λογοθετίδη","number":"14","area":"Αθήνα","postCode":"11524","position":{"type":"Point","coordinates":[23.76365,37.99426]}},{"street":"Σωκράτους","number":"17","area":"Αθήνα","postCode":"10552","position":{"type":"Point","coordinates":[23.72592,37.98111]}},{"area":"Μαρούσι","postCode":"15123","position":{"type":"Point","coordinates":[23.78187,38.03585]}},{"street":"Πάρου","area":"Μαρούσι","postCode":"15126","position":{"type":"Point","coordinates":[23.8237,38.03909]}},{"street":"Κυβέλης","number":"6","area":"Αθήνα","postCode":"10682","position":{"type":"Point","coordinates":[23.73253,37.99007]}},{"street":"Πανόρμου","number":"18","area":"Αθήνα","postCode":"11523","position":{"type":"Point","coordinates":[23.75845,37.98913]}},{"street":"Αρίωνος","number":"6","area":"Αθήνα","postCode":"10554","position":{"type":"Point","coordinates":[23.72341,37.97725]}},{"street":"Λεβέντη","area":"Αθήνα","postCode":"10673","position":{"type":"Point","coordinates":[23.74201,37.97796]}},{"street":"Λυκίας","number":"8","area":"Αθήνα","postCode":"11527","position":{"type":"Point","coordinates":[23.76143,37.98351]}},{"street":"Τμώλου","number":"11","area":"Αθήνα","postCode":"10443","position":{"type":"Point","coordinates":[23.71359,38.00008]}},{"street":"Διπλάρη","area":"Αθήνα","postCode":"10552","position":{"type":"Point","coordinates":[23.72533,37.98074]}},{"street":"Ανεμώνης","area":"Χαλάνδρι","postCode":"15238","position":{"type":"Point","coordinates":[23.85048,38.03308]}},{"street":"Τυμφρηστού","number":"1","area":"Χαλάνδρι","postCode":"15234","position":{"type":"Point","coordinates":[23.82378,38.03068]}},{"street":"Κ. Γαρδέλη","number":"5","area":"Μαρούσι","postCode":"15124","position":{"type":"Point","coordinates":[23.80923,38.05403]}},{"street":"Βασιλικών","number":"9","area":"Αθήνα","postCode":"10442","position":{"type":"Point","coordinates":[23.71264,37.99375]}},{"street":"Αλκμέωνος","area":"Αθήνα","postCode":"10442","position":{"type":"Point","coordinates":[23.70781,37.9945]}},{"street":"Λεωφόρος Παναγιώτη Κανελλοπούλου","number":"3","area":"Αθήνα","postCode":"11527","position":{"type":"Point","coordinates":[23.77913,37.98873]}},{"street":"Θησέως","number":"3","area":"Χαλάνδρι","postCode":"15232","position":{"type":"Point","coordinates":[23.8076,38.0161]}},{"street":"Ντάλιας","area":"Χαλάνδρι","postCode":"15238","position":{"type":"Point","coordinates":[23.84704,38.03119]}},{"street":"Πλατεία Αλεξάνδρου Διάκου","area":"Αθήνα","postCode":"11524","position":{"type":"Point","coordinates":[23.76,38.00045]}},{"street":"Ποσειδίππου","number":"5","area":"Αθήνα","postCode":"10442","position":{"type":"Point","coordinates":[23.70518,37.99083]}},{"street":"Χρυσοστόμου Σμύρνης","number":"13","area":"Αθήνα","postCode":"11144","position":{"type":"Point","coordinates":[23.7318,38.01487]}},{"street":"Τσαγκάρη","number":"13","area":"Αθήνα","postCode":"10558","position":{"type":"Point","coordinates":[23.73289,37.97165]}},{"street":"Φανοσθένους","number":"9","area":"Αθήνα","postCode":"11745","position":{"type":"Point","coordinates":[23.72284,37.95896]}},{"street":"Καραθεοδωρή","number":"19","area":"Αθήνα","postCode":"11525","position":{"type":"Point","coordinates":[23.77609,37.99518]}},{"street":"Σωτηρίου Σκίπη","number":"16","area":"Αθήνα","postCode":"11525","position":{"type":"Point","coordinates":[23.77514,37.99794]}},{"street":"Εμμανουήλ Μπενάκη","number":"10","area":"Αθήνα","postCode":"10564","position":{"type":"Point","coordinates":[23.73018,37.98299]}},{"street":"Ρόδου","number":"3","area":"Αθήνα","postCode":"11252","position":{"type":"Point","coordinates":[23.72947,38.00311]}},{"street":"Παναγιώτου","number":"1","area":"Αθήνα","postCode":"11363","position":{"type":"Point","coordinates":[23.74936,38.0035]}},{"street":"Διονυσίου Σολωμού","number":"9","area":"Χαλάνδρι","postCode":"15232","position":{"type":"Point","coordinates":[23.7942,38.02265]}},{"street":"Ανηφορίτη","number":"2","area":"Αθήνα","postCode":"11522","position":{"type":"Point","coordinates":[23.75369,37.99491]}},{"street":"Ιωάννη Σούτσου","number":"5","area":"Αθήνα","postCode":"11474","position":{"type":"Point","coordinates":[23.74387,37.99031]}},{"street":"Τροπαιοφόρου","area":"Μαρούσι","postCode":"15126","position":{"type":"Point","coordinates":[23.81931,38.04871]}},{"street":"Γαλαξία","number":"4","area":"Αθήνα","postCode":"11745","position":{"type":"Point","coordinates":[23.72009,37.95746]}},{"street":"Κήπων","number":"3","area":"Αθήνα","postCode":"11143","position":{"type":"Point","coordinates":[23.72833,38.0219]}},{"street":"Σκουφά","number":"11","area":"Χαλάνδρι","postCode":"15238","position":{"type":"Point","coordinates":[23.83844,38.03018]}},{"street":"Δημητρίου Γουζέλη","number":"2","area":"Τρίκαλα","postCode":"42131","position":{"type":"Point","coordinates":[21.75291,39.56152]}},{"street":"Μεσσήνης","area":"Αθήνα","postCode":"11744","position":{"type":"Point","coordinates":[23.73225,37.95692]}},{"street":"Γρεβενών","number":"1","area":"Διόνυσος","postCode":"14572","position":{"type":"Point","coordinates":[23.86499,38.1096]}},{"street":"Ρίζου Ροϊλού","number":"13","area":"Αθήνα","postCode":"11141","position":{"type":"Point","coordinates":[23.74353,38.01469]}},null,{"street":"Σαρρή","number":"12","area":"Αθήνα","postCode":"10553","position":{"type":"Point","coordinates":[23.72352,37.97969]}},{"street":"Μαιζώνος","number":"4","area":"Αθήνα","postCode":"10438","position":{"type":"Point","coordinates":[23.72593,37.98719]}},{"street":"Ιμίων","area":"Αθήνα","postCode":"11527","position":{"type":"Point","coordinates":[23.76971,37.98805]}},{"street":"Ανδρέα Μεταξά","number":"11","area":"Αθήνα","postCode":"10681","position":{"type":"Point","coordinates":[23.73518,37.98528]}},{"street":"Κρήτης στον Οικισμό Γεωργίου Παπανδρέου","number":"13","area":"Αθήνα","postCode":"11363","position":{"type":"Point","coordinates":[23.75707,38.00384]}},{"street":"Ευανθίας Καΐρη","number":"15","area":"Αθήνα","postCode":"11255","position":{"type":"Point","coordinates":[23.73944,38.01112]}},{"street":"Χιώτη","number":"7","area":"Αθήνα","postCode":"11476","position":{"type":"Point","coordinates":[23.75541,37.99656]}},{"street":"Σοφιανοπούλου","number":"20","area":"Αθήνα","postCode":"11145","position":{"type":"Point","coordinates":[23.72685,38.01309]}},{"street":"Ζακύνθου","number":"16","area":"Χαλάνδρι","postCode":"15232","position":{"type":"Point","coordinates":[23.80929,38.01724]}},{"street":"Έβανς","number":"17","area":"Αθήνα","postCode":"11143","position":{"type":"Point","coordinates":[23.73331,38.02378]}},{"street":"Λεωφόρος Κηφισίας","number":"6","area":"Μαρούσι","postCode":"15125","position":{"type":"Point","coordinates":[23.79642,38.03442]}},{"street":"Αλιστράτης","number":"18","area":"Μαρούσι","postCode":"15126","position":{"type":"Point","coordinates":[23.82638,38.05084]}},{"street":"Φιλύρας","area":"Χαλάνδρι","postCode":"15232","position":{"type":"Point","coordinates":[23.80279,38.01683]}},{"street":"Ακάστου","number":"1","area":"Αθήνα","postCode":"11364","position":{"type":"Point","coordinates":[23.74972,38.00769]}},{"street":"Γραβιάς","area":"Χαλάνδρι","postCode":"15233","position":{"type":"Point","coordinates":[23.81052,38.02635]}},{"street":"Δουκίσσης Πλακεντίας","number":"15","area":"Χαλάνδρι","postCode":"15234","position":{"type":"Point","coordinates":[23.81019,38.0197]}},{"street":"Νεοφύτου Βάμβα","area":"Αθήνα","postCode":"10674","position":{"type":"Point","coordinates":[23.7413,37.97603]}},{"street":"Τυμφρηστού","number":"12","area":"Αθήνα","postCode":"11743","position":{"type":"Point","coordinates":[23.72991,37.96408]}},{"street":"Αγίου Κωνσταντίνου","number":"16","area":"Αθήνα","postCode":"10431","position":{"type":"Point","coordinates":[23.72601,37.98462]}},{"street":"Υψηλάντου","number":"20","area":"Μαρούσι","postCode":"15122","position":{"type":"Point","coordinates":[23.79811,38.0565]}},{"street":"Κουτσονίκα","number":"8","area":"Αθήνα","postCode":"11744","position":{"type":"Point","coordinates":[23.72982,37.95833]}},{"street":"Πλατεία Αιγύπτου","number":"1B","area":"Αθήνα","postCode":"10434","position":{"type":"Point","coordinates":[23.73168,37.99223]}},{"street":"Χατζηαντωνίου","number":"8","area":"Μαρούσι","postCode":"15124","position":{"type":"Point","coordinates":[23.80752,38.05354]}},{"street":"Αμυνταίου","number":"3","area":"Χαλάνδρι","postCode":"15233","position":{"type":"Point","coordinates":[23.80704,38.03002]}},{"street":"Λεωφόρος Συγγρού","area":"Αθήνα","postCode":"11743","position":{"type":"Point","coordinates":[23.73004,37.96707]}},{"street":"Αρκαδίας","number":"11","area":"Χαλάνδρι","postCode":"15234","position":{"type":"Point","coordinates":[23.81947,38.02968]}},{"street":"Ανθηδόνος","number":"7","area":"Αθήνα","postCode":"10441","position":{"type":"Point","coordinates":[23.71488,37.98838]}},{"street":"Πλατεία Ηούς","area":"Αθήνα","postCode":"11853","position":{"type":"Point","coordinates":[23.70637,37.96763]}},{"street":"Δαιδαλίδων","number":"28","area":"Αθήνα","postCode":"11853","position":{"type":"Point","coordinates":[23.70816,37.97134]}},{"street":"Βερίτη","number":"10","area":"Αθήνα","postCode":"11145","position":{"type":"Point","coordinates":[23.72336,38.01746]}},{"street":"Συνταγματάρχου Νικόλαου Γεωργούλα","number":"12","area":"Αθήνα","postCode":"11524","position":{"type":"Point","coordinates":[23.76655,37.99814]}},{"street":"Ισαάκ Τάσου","area":"Μαρούσι","postCode":"15125","position":{"type":"Point","coordinates":[23.80333,38.03397]}},{"street":"Δρυόπων","number":"10","area":"Αθήνα","postCode":"11852","position":{"type":"Point","coordinates":[23.70962,37.9677]}},{"street":"Ζαλοκώστα","number":"8","area":"Χαλάνδρι","postCode":"15233","position":{"type":"Point","coordinates":[23.797,38.02294]}},{"street":"Προς Λεωφόρο Κηφισού-Πειραιά","area":"Αθήνα","postCode":"10442, 10447","position":{"type":"Point","coordinates":[23.69477,37.99608]}},{"street":"Συνταγματάρχου Νικόλαου Γεωργούλα","number":"8","area":"Αθήνα","postCode":"11524","position":{"type":"Point","coordinates":[23.76691,37.99796]}},{"street":"Νεοκλέους","number":"11","area":"Αθήνα","postCode":"11743","position":{"type":"Point","coordinates":[23.73221,37.95989]}},{"street":"Χείλωνος","area":"Αθήνα","postCode":"10441","position":{"type":"Point","coordinates":[23.71098,37.98865]}},{"street":"Πανδώρας","number":"19","area":"Χαλάνδρι","postCode":"15232","position":{"type":"Point","coordinates":[23.80014,38.01571]}},{"street":"Τερψιχόρης","number":"7","area":"Χαλάνδρι","postCode":"15232","position":{"type":"Point","coordinates":[23.80213,38.01616]}},{"street":"Αλεξάνδρου Παπαδιαμάντη","number":"14","area":"Παιανία","postCode":"19002","position":{"type":"Point","coordinates":[23.84879,37.96339]}},{"street":"Φίνλεϋ","area":"Αθήνα","postCode":"11744","position":{"type":"Point","coordinates":[23.72549,37.95637]}},{"street":"Καλαβρύτων","area":"Χαλάνδρι","postCode":"15234","position":{"type":"Point","coordinates":[23.82362,38.02859]}},{"street":"Ι. Πατέρα","area":"Αθήνα","postCode":"10676","position":{"type":"Point","coordinates":[23.74754,37.97829]}},{"street":"Δανίλη","number":"9","area":"Αθήνα","postCode":"11744","position":{"type":"Point","coordinates":[23.72687,37.95569]}},{"street":"Καυκάσου","number":"16","area":"Αθήνα","postCode":"11362","position":{"type":"Point","coordinates":[23.7409,37.99709]}},{"street":"Θερμοπυλών","number":"10","area":"Χαλάνδρι","postCode":"15233","position":{"type":"Point","coordinates":[23.79338,38.02947]}},{"street":"Αμεινοκλέους","number":"3","area":"Αθήνα","postCode":"11744","position":{"type":"Point","coordinates":[23.72781,37.9599]}},{"street":"Χλόης","area":"Διόνυσος","postCode":"14572","position":{"type":"Point","coordinates":[23.86182,38.10875]}},{"street":"Βυτίνης","area":"Αθήνα","postCode":"11523","position":{"type":"Point","coordinates":[23.76172,37.99124]}},{"street":"Προς Λεωφόρο Κηφισίας-Αθήνα","area":"Μαρούσι","postCode":"15123","position":{"type":"Point","coordinates":[23.79057,38.02819]}},{"street":"Παμφίλου","number":"4","area":"Αθήνα","postCode":"11632","position":{"type":"Point","coordinates":[23.74615,37.95709]}},{"street":"Ανθέων","number":"4","area":"Αθήνα","postCode":"11143","position":{"type":"Point","coordinates":[23.73678,38.02481]}},{"street":"Μπουμπουλίνας","number":"5","area":"Μαρούσι","postCode":"15125","position":{"type":"Point","coordinates":[23.81057,38.04076]}},{"street":"Ελλησπόντου","number":"1","area":"Μαρούσι","postCode":"15126","position":{"type":"Point","coordinates":[23.82065,38.04246]}},{"street":"Ολυμπιονίκου Τσικλητήρα","number":"19","area":"Μαρούσι","postCode":"15125","position":{"type":"Point","coordinates":[23.81392,38.04137]}},{"street":"Αμαζόνων","number":"7","area":"Αθήνα","postCode":"10435","position":{"type":"Point","coordinates":[23.71457,37.98138]}},{"street":"Βησσαρίωνος","number":"5","area":"Αθήνα","postCode":"10672","position":{"type":"Point","coordinates":[23.73514,37.97947]}},{"street":"Νικίου","number":"3","area":"Αθήνα","postCode":"10560","position":{"type":"Point","coordinates":[23.72855,37.97793]}},{"street":"Αγίας Φιλοθέης","number":"9","area":"Αθήνα","postCode":"10556","position":{"type":"Point","coordinates":[23.73017,37.97448]}},{"street":"Παρασκευοπούλου στην περιοχή Κυνοσάργους","number":"4","area":"Αθήνα","postCode":"11743","position":{"type":"Point","coordinates":[23.73257,37.96521]}},{"street":"Μουσών","number":"4","area":"Μαρούσι","postCode":"15126","position":{"type":"Point","coordinates":[23.81542,38.05459]}},{"street":"Κρατίνου","area":"Αθήνα","postCode":"10551, 10552","position":{"type":"Point","coordinates":[23.72738,37.98152]}},{"street":"Βοσπόρου","number":"7","area":"Χαλάνδρι","postCode":"15233","position":{"type":"Point","coordinates":[23.79548,38.02637]}},{"street":"Δεβιάζη","area":"Αθήνα","postCode":"11476","position":{"type":"Point","coordinates":[23.75541,37.99928]}},{"street":"Προς Αθήνα","area":"Αιγάλεω","postCode":"12131, 12242","position":{"type":"Point","coordinates":[23.69141,37.99817]}},{"street":"Αιθαλιδών","number":"4","area":"Αθήνα","postCode":"11851","position":{"type":"Point","coordinates":[23.71387,37.97384]}},{"street":"Πιττακού","number":"9","area":"Μαρούσι","postCode":"15126","position":{"type":"Point","coordinates":[23.82587,38.05404]}},{"street":"Αμαρουσίου-Χαλανδρίου","area":"Χαλάνδρι","postCode":"15233","position":{"type":"Point","coordinates":[23.80338,38.03186]}},{"street":"Αχαρνών","area":"Αθήνα","postCode":"11253","position":{"type":"Point","coordinates":[23.72981,38.00855]}},{"street":"Ζήτρου","area":"Αθήνα","postCode":"11742","position":{"type":"Point","coordinates":[23.72687,37.96769]}},{"street":"Πρωτομάχου","area":"Αθήνα","postCode":"10443","position":{"type":"Point","coordinates":[23.71856,38.00333]}},{"street":"Γεωργίου Παπανικολάου","number":"9","area":"Χαλάνδρι","postCode":"15238","position":{"type":"Point","coordinates":[23.84439,38.03314]}},{"street":"Πυροσβέστη Χαϊδά Χρήστου","number":"4","area":"Αθήνα","postCode":"10443","position":{"type":"Point","coordinates":[23.71561,38.00518]}},{"street":"Ανδρέα Συγγρού","number":"20","area":"Λιβαδειά","postCode":"32131","position":{"type":"Point","coordinates":[22.87136,38.43257]}},{"street":"Θρασύβουλου","number":"4","area":"Χαλάνδρι","postCode":"15233","position":{"type":"Point","coordinates":[23.80977,38.02602]}},{"street":"Αετίου","number":"18","area":"Αθήνα","postCode":"11631","position":{"type":"Point","coordinates":[23.74117,37.95614]}},{"street":"Παναγίας Μαρμαριωτίσσης","number":"6","area":"Χαλάνδρι","postCode":"15232","position":{"type":"Point","coordinates":[23.79505,38.01659]}},{"street":"Πρωταγόρα","area":"Αθήνα","postCode":"11635","position":{"type":"Point","coordinates":[23.7437,37.96714]}},{"street":"Κοσμά Μελωδού","number":"13","area":"Αθήνα","postCode":"11471","position":{"type":"Point","coordinates":[23.74433,37.98587]}},{"street":"Αλτέως στην περιοχή Άνω Κυψέλης","number":"5","area":"Αθήνα","postCode":"11364","position":{"type":"Point","coordinates":[23.74802,38.00565]}},{"street":"Μανιακίου","number":"10","area":"Διόνυσος","postCode":"14572","position":{"type":"Point","coordinates":[23.85921,38.10805]}},{"street":"Πλειάδος","number":"13","area":"Αθήνα","postCode":"11852","position":{"type":"Point","coordinates":[23.71265,37.96591]}},{"street":"Γαζίας","number":"6","area":"Χαλάνδρι","postCode":"15233","position":{"type":"Point","coordinates":[23.81282,38.03096]}},{"street":"Σκρα","area":"Αθήνα","postCode":"11144","position":{"type":"Point","coordinates":[23.73524,38.01997]}},{"street":"Ζυγούρη","area":"Αθήνα","postCode":"11744","position":{"type":"Point","coordinates":[23.72895,37.95816]}},{"street":"Λομβαρδού","number":"114","area":"Αθήνα","postCode":"11475","position":{"type":"Point","coordinates":[23.74833,37.99002]}},{"street":"Πάροδος Νεϊγύ","area":"Αθήνα","postCode":"11143","position":{"type":"Point","coordinates":[23.73362,38.02344]}},{"street":"Ανδρέα Παπανδρέου","number":"3","area":"Μαρούσι","postCode":"15124","position":{"type":"Point","coordinates":[23.80192,38.04209]}},{"street":"Συγγρού","number":"1","area":"Χαλάνδρι","postCode":"15233","position":{"type":"Point","coordinates":[23.79044,38.02458]}},{"street":"Εικοστής Πέμπτης Μαρτίου","number":"3","area":"Κορδελιό-Εύοσμος","postCode":"56226","position":{"type":"Point","coordinates":[22.90337,40.67403]}},{"street":"Ινούς","number":"11","area":"Αθήνα","postCode":"10444","position":{"type":"Point","coordinates":[23.7128,37.99568]}},{"street":"Βουτσαρά","number":"4","area":"Αθήνα","postCode":"11855","position":{"type":"Point","coordinates":[23.70345,37.97708]}},{"street":"Αγαθίου","number":"6","area":"Αθήνα","postCode":"11472","position":{"type":"Point","coordinates":[23.74307,37.98843]}},{"street":"Πλατεία Δεξαμενής στην περιοχή Πετραλώνων","number":"6","area":"Αθήνα","postCode":"11852","position":{"type":"Point","coordinates":[23.7108,37.96537]}},{"street":"Υπερείδου","number":"9","area":"Αθήνα","postCode":"10558","position":{"type":"Point","coordinates":[23.73241,37.97345]}},{"street":"Σποράδων","number":"13","area":"Αθήνα","postCode":"11361","position":{"type":"Point","coordinates":[23.73705,37.99834]}},{"street":"Πυργοτέλους","number":"4","area":"Αθήνα","postCode":"11635","position":{"type":"Point","coordinates":[23.74502,37.96637]}},{"street":"Κονίτσης","number":"5","area":"Διόνυσος","postCode":"14572","position":{"type":"Point","coordinates":[23.86642,38.10882]}},{"street":"Αλαμάνας","area":"Χαλάνδρι","postCode":"15234","position":{"type":"Point","coordinates":[23.82675,38.02643]}},{"street":"Μπόταση","number":"1","area":"Αθήνα","postCode":"10682","position":{"type":"Point","coordinates":[23.73246,37.98625]}},{"street":"Ρώμα","number":"7","area":"Αθήνα","postCode":"10673","position":{"type":"Point","coordinates":[23.73872,37.97868]}},{"street":"Λαζαίων","number":"11","area":"Αθήνα","postCode":"11741","position":{"type":"Point","coordinates":[23.72225,37.96563]}},{"street":"Αλκηστίδος","number":"9","area":"Αθήνα","postCode":"10444","position":{"type":"Point","coordinates":[23.71968,37.99732]}},{"street":"Περικλέους","number":"18","area":"Μαρούσι","postCode":"15122","position":{"type":"Point","coordinates":[23.80274,38.05752]}},{"street":"Γιώργου Λαζάνη","number":"5","area":"Χαλάνδρι","postCode":"15238","position":{"type":"Point","coordinates":[23.85166,38.03437]}},{"street":"Χειμάρρας","number":"20","area":"Μαρούσι","postCode":"15125","position":{"type":"Point","coordinates":[23.81015,38.0389]}},{"street":"Ηλία Κορμά","area":"Αθήνα","postCode":"11523","position":{"type":"Point","coordinates":[23.76319,37.99158]}},{"street":"Βρυσακίου","area":"Αθήνα","postCode":"10555, 10558","position":{"type":"Point","coordinates":[23.72456,37.97528]}},{"street":"Παπαφλέσσα","number":"19","area":"Μαρούσι","postCode":"15124","position":{"type":"Point","coordinates":[23.81028,38.05269]}},{"street":"Κορυτσάς","number":"2","area":"Μαρούσι","postCode":"15126","position":{"type":"Point","coordinates":[23.82898,38.04756]}},{"street":"Μένωνος","area":"Αθήνα","postCode":"11636","position":{"type":"Point","coordinates":[23.7339,37.96275]}},{"street":"Πλατεία Λέλας Καραγιάννη","area":"Αθήνα","postCode":"10443","position":{"type":"Point","coordinates":[23.71645,38.00807]}},{"street":"Οδυσσέως","number":"18","area":"Αθήνα","postCode":"10437","position":{"type":"Point","coordinates":[23.71991,37.98565]}},{"street":"Νιόβης","area":"Μαρούσι","postCode":"15124","position":{"type":"Point","coordinates":[23.79753,38.04106]}},{"street":"Αιλιανού","number":"16","area":"Αθήνα","postCode":"11254","position":{"type":"Point","coordinates":[23.73233,38.01086]}},{"street":"Νιγρίτης","area":"Αθήνα","postCode":"11252","position":{"type":"Point","coordinates":[23.73244,38.00171]}},{"street":"Τίρυνθος","area":"Αθήνα","postCode":"11143","position":{"type":"Point","coordinates":[23.73332,38.02584]}},{"street":"Πάροδος Πολυδάμαντος","area":"Αθήνα","postCode":"11635","position":{"type":"Point","coordinates":[23.74417,37.96679]}},{"street":"Αλκίμου","area":"Αθήνα","postCode":"11743","position":{"type":"Point","coordinates":[23.72837,37.96486]}},{"street":"Λεωφόρος Κύμης","area":"Μαρούσι","postCode":"14235, 15123","position":{"type":"Point","coordinates":[23.77709,38.04079]}},{"street":"Λευκωσίας","area":"Μαρούσι","postCode":"15125","position":{"type":"Point","coordinates":[23.81397,38.0421]}},{"street":"Φρύνωνος","number":"14","area":"Αθήνα","postCode":"11632","position":{"type":"Point","coordinates":[23.74232,37.96184]}},{"street":"Τάκη","number":"4","area":"Αθήνα","postCode":"10554","position":{"type":"Point","coordinates":[23.72462,37.97894]}},{"street":"Μπενάκη","number":"9","area":"Χαλάνδρι","postCode":"15238","position":{"type":"Point","coordinates":[23.83835,38.02406]}},{"street":"Λαμπόβου","number":"1","area":"Αθήνα","postCode":"10443","position":{"type":"Point","coordinates":[23.71652,38.00631]}},{"street":"Πλατεία Παπαδιαμάντη","area":"Αθήνα","postCode":"11141","position":{"type":"Point","coordinates":[23.74169,38.02047]}},{"street":"Κέας","number":"6","area":"Αθήνα","postCode":"11255","position":{"type":"Point","coordinates":[23.7356,38.00983]}},{"street":"Διονυσίου Σολωμού","number":"11","area":"Αθήνα","postCode":"10683","position":{"type":"Point","coordinates":[23.73366,37.98642]}},{"street":"Θεόφραστου","number":"5","area":"Αθήνα","postCode":"11635","position":{"type":"Point","coordinates":[23.74298,37.96913]}},{"street":"Λεωφόρος Παναγιώτη Κανελλοπούλου","number":"3","area":"Αθήνα","postCode":"11527","position":{"type":"Point","coordinates":[23.77913,37.98873]}},{"street":"Βόλβης","number":"14","area":"Αθήνα","postCode":"11142","position":{"type":"Point","coordinates":[23.74385,38.02675]}},{"street":"Αισχίνου","area":"Αθήνα","postCode":"10558","position":{"type":"Point","coordinates":[23.73088,37.97001]}},{"street":"Δεξαμενής","area":"Διόνυσος","postCode":"14572","position":{"type":"Point","coordinates":[23.86635,38.11045]}},{"street":"Κερασούντος","number":"2","area":"Αθήνα","postCode":"11528","position":{"type":"Point","coordinates":[23.75639,37.98181]}},{"street":"Λεωφόρος Κωνσταντίνου Καραμανλή","number":"11","area":"Βάρη-Βούλα-Βουλιαγμένη","postCode":"16673","position":{"type":"Point","coordinates":[23.75273,37.85214]}},{"street":"Τσιάφη","number":"7","area":"Αθήνα","postCode":"11363","position":{"type":"Point","coordinates":[23.7522,38.00503]}},{"street":"Αθανασίου Διάκου","number":"6","area":"Μαρούσι","postCode":"15122","position":{"type":"Point","coordinates":[23.79963,38.05395]}},{"street":"Μπουζίκη","number":"20","area":"Αθήνα","postCode":"11476","position":{"type":"Point","coordinates":[23.75854,37.99761]}},{"street":"Σφακτηρίας","number":"12","area":"Χαλάνδρι","postCode":"15231","position":{"type":"Point","coordinates":[23.78941,38.00777]}},{"street":"Πάροδος Πανδρόσου","number":"11","area":"Μαρούσι","postCode":"15126","position":{"type":"Point","coordinates":[23.81492,38.05215]}},{"street":"Δωδεκανήσου","number":"5","area":"Μαρούσι","postCode":"15122","position":{"type":"Point","coordinates":[23.79624,38.0501]}},{"street":"Ελικώνος","number":"16","area":"Αθήνα","postCode":"11364","position":{"type":"Point","coordinates":[23.74285,38.00578]}},{"street":"Αθανασίου Καρπενησιώτη","number":"14","area":"Αθήνα","postCode":"11524","position":{"type":"Point","coordinates":[23.7593,37.99821]}},{"street":"Λεωνίδα Σκοπετέα","area":"Αθήνα","postCode":"11521","position":{"type":"Point","coordinates":[23.75245,37.98366]}},{"street":"Γκυϊλφόρδου","number":"13","area":"Αθήνα","postCode":"10434","position":{"type":"Point","coordinates":[23.73041,37.99261]}},{"street":"Πουλχερίας","number":"4","area":"Αθήνα","postCode":"11473","position":{"type":"Point","coordinates":[23.73984,37.98939]}},{"street":"Γεωργίου Σαρακιώτη","number":"5","area":"Αθήνα","postCode":"11522","position":{"type":"Point","coordinates":[23.7548,37.99494]}},{"street":"Μπούσγου","area":"Αθήνα","postCode":"11473","position":{"type":"Point","coordinates":[23.73918,37.99163]}},{"street":"Καραϊσκάκη Γεώργιου","area":"Αλεξάνδρεια","postCode":"59300","position":{"type":"Point","coordinates":[22.54783,40.56774]}},{"street":"Νικηφόρου Φωκά","number":"18","area":"Νίκαια-Άγιος Ιωάννης Ρέντης","postCode":"18451","position":{"type":"Point","coordinates":[23.63686,37.96837]}},{"street":"Πόντου","number":"18","area":"Χαλάνδρι","postCode":"15238","position":{"type":"Point","coordinates":[23.84082,38.033]}},{"street":"Στροφάδων","number":"10","area":"Αθήνα","postCode":"11362","position":{"type":"Point","coordinates":[23.74085,38.00046]}},{"street":"Δημητρέσσα","number":"19","area":"Αθήνα","postCode":"11528","position":{"type":"Point","coordinates":[23.75538,37.97603]}},{"street":"Μαρτελάου","number":"9","area":"Αθήνα","postCode":"11525","position":{"type":"Point","coordinates":[23.77777,37.9961]}},{"street":"Αραχναίου","number":"14","area":"Αθήνα","postCode":"11522","position":{"type":"Point","coordinates":[23.75858,37.99486]}},{"street":"Τομπάζη","number":"3","area":"Αθήνα","postCode":"10553","position":{"type":"Point","coordinates":[23.72167,37.97912]}},{"street":"Λεωφόρος Αλεξάνδρας","area":"Αθήνα","postCode":"11474","position":{"type":"Point","coordinates":[23.74492,37.98969]}},{"street":"Ωριγένους","area":"Αθήνα","postCode":"11471","position":{"type":"Point","coordinates":[23.74384,37.98585]}},{"street":"Ναυπλίου","number":"14","area":"Αθήνα","postCode":"10444","position":{"type":"Point","coordinates":[23.71609,37.99047]}},{"street":"Ιουλίου Σμίθ","number":"3","area":"Αθήνα","postCode":"11851","position":{"type":"Point","coordinates":[23.72014,37.97274]}},{"street":"Ταγιαπιέρα","area":"Αθήνα","postCode":"11525","position":{"type":"Point","coordinates":[23.78104,37.99731]}},{"street":"Λεωφόρος Κύμης","area":"Μαρούσι","postCode":"14235, 15123","position":{"type":"Point","coordinates":[23.77709,38.04079]}},{"street":"Ρομπέρ","area":"Αθήνα","postCode":"11741","position":{"type":"Point","coordinates":[23.71727,37.9628]}},{"street":"Προς Αθήνα","area":"Αιγάλεω","postCode":"12131, 12242","position":{"type":"Point","coordinates":[23.69141,37.99817]}},{"street":"Πλατεία Σταδίου","area":"Αθήνα","postCode":"11635, 11636","position":{"type":"Point","coordinates":[23.74075,37.96979]}},{"street":"Κολοκάση","area":"Αθήνα","postCode":"11476","position":{"type":"Point","coordinates":[23.75284,37.99983]}},{"street":"Καπανέως","number":"8","area":"Αθήνα","postCode":"10444","position":{"type":"Point","coordinates":[23.71918,37.99478]}},{"street":"Ρως","number":"11","area":"Αθήνα","postCode":"11144","position":{"type":"Point","coordinates":[23.73358,38.02125]}},{"street":"Μενελάου","area":"Μαρούσι","postCode":"15124","position":{"type":"Point","coordinates":[23.79507,38.04353]}},{"street":"Πίττα","area":"Αθήνα","postCode":"11363","position":{"type":"Point","coordinates":[23.75173,38.00466]}},{"street":"Νεοφύτου Μεταξά","number":"20","area":"Αθήνα","postCode":"10439","position":{"type":"Point","coordinates":[23.72255,37.99087]}},{"street":"Ικονίου","number":"6","area":"Αθήνα","postCode":"10446","position":{"type":"Point","coordinates":[23.72718,37.99967]}},{"street":"Χωματιανού","number":"6","area":"Μαρούσι","postCode":"15123","position":{"type":"Point","coordinates":[23.79787,38.03729]}},{"street":"Ναϊάδων","area":"Αθήνα","postCode":"11634","position":{"type":"Point","coordinates":[23.74743,37.97434]}},{"street":"Αλεξάνδρου Νούτσου","number":"10","area":"Αθήνα","postCode":"11744","position":{"type":"Point","coordinates":[23.72992,37.95689]}},{"street":"Ίδης","area":"Αθήνα","postCode":"10442","position":{"type":"Point","coordinates":[23.70407,37.99292]}},{"street":"Σαπφούς","number":"9","area":"Αθήνα","postCode":"10553","position":{"type":"Point","coordinates":[23.72364,37.98104]}},{"street":"Μολάων","area":"Χαλάνδρι","postCode":"15234","position":{"type":"Point","coordinates":[23.81958,38.03051]}},{"street":"Μάρκου Μουσούρου","number":"4","area":"Αθήνα","postCode":"11636","position":{"type":"Point","coordinates":[23.7374,37.96793]}},{"area":"Παιανία","position":{"type":"Point","coordinates":[23.87037,37.98234]}},{"street":"Γενναίου Κολοκοτρώνη","number":"7","area":"Αθήνα","postCode":"11741","position":{"type":"Point","coordinates":[23.71831,37.96268]}},{"street":"Βραχωρίου","number":"13","area":"Αθήνα","postCode":"10444","position":{"type":"Point","coordinates":[23.71548,37.99422]}},{"street":"Αμυκλών","number":"6","area":"Αθήνα","postCode":"11142","position":{"type":"Point","coordinates":[23.74707,38.02314]}},{"street":"Κρόνου","area":"Χαλάνδρι","postCode":"15238","position":{"type":"Point","coordinates":[23.8445,38.02769]}},{"street":"Μιχαήλ Νομικού","number":"11","area":"Αθήνα","postCode":"11253","position":{"type":"Point","coordinates":[23.73378,38.008]}},{"street":"Πατησίων","area":"Αθήνα","postCode":"11141, 11144, 11252, 11253, 11254, 11255, 11256, 11257","position":{"type":"Point","coordinates":[23.73522,38.01186]}},{"street":"Γυθείου","number":"13","area":"Χαλάνδρι","postCode":"15231","position":{"type":"Point","coordinates":[23.79319,38.00492]}},{"street":"Παρμενίδου","number":"1","area":"Αθήνα","postCode":"11636","position":{"type":"Point","coordinates":[23.74278,37.96561]}},{"street":"Κρατύλου","number":"9","area":"Αθήνα","postCode":"10442","position":{"type":"Point","coordinates":[23.70941,37.99201]}},{"street":"Κορθίου","number":"6","area":"Αθήνα","postCode":"11254","position":{"type":"Point","coordinates":[23.73321,38.00929]}},{"street":"Κριναγόρου","area":"Αθήνα","postCode":"11745","position":{"type":"Point","coordinates":[23.72039,37.95376]}},{"street":"Μαρίνου Γερουλάνου","number":"17","area":"Αθήνα","postCode":"11524","position":{"type":"Point","coordinates":[23.76552,37.99509]}},{"street":"Σμόλικα","number":"18","area":"Αθήνα","postCode":"10443","position":{"type":"Point","coordinates":[23.71541,38.00698]}},{"street":"Άγγελου Γέροντα","area":"Αθήνα","postCode":"10558","position":{"type":"Point","coordinates":[23.73157,37.97167]}},{"street":"Αριστοφάνους","number":"2","area":"Αθήνα","postCode":"10554","position":{"type":"Point","coordinates":[23.72492,37.97873]}},{"street":"Θρίων","area":"Αθήνα","postCode":"11363","position":{"type":"Point","coordinates":[23.75107,38.00746]}},{"street":"Κάδμου","number":"9","area":"Χαλάνδρι","postCode":"15238","position":{"type":"Point","coordinates":[23.83898,38.0309]}},{"street":"Αγράφων","number":"18","area":"Αθήνα","postCode":"11741","position":{"type":"Point","coordinates":[23.71612,37.96522]}},{"street":"Ανδρονίκου","area":"Μαρούσι","postCode":"15122","position":{"type":"Point","coordinates":[23.79384,38.04985]}},{"street":"Ι. Γενναδίου","number":"14","area":"Αθήνα","postCode":"11521","position":{"type":"Point","coordinates":[23.74886,37.97871]}},{"street":"Χάνσεν","number":"15","area":"Αθήνα","postCode":"11144","position":{"type":"Point","coordinates":[23.7341,38.01778]}},{"street":"Δημουλίτσα Πάργας","number":"10","area":"Αθήνα","postCode":"11475","position":{"type":"Point","coordinates":[23.75262,37.99243]}},{"street":"Παπαρηγοπούλου","number":"9","area":"Χαλάνδρι","postCode":"15232","position":{"type":"Point","coordinates":[23.79501,38.02098]}},{"street":"Σαχτούρη","number":"3","area":"Αθήνα","postCode":"10553","position":{"type":"Point","coordinates":[23.72301,37.97954]}},{"street":"Εμμανουήλ Αντωνιάδου","number":"6","area":"Αθήνα","postCode":"10434","position":{"type":"Point","coordinates":[23.73234,37.99355]}},{"street":"Σαρανταπόρου","number":"1","area":"Χαλάνδρι","postCode":"15232","position":{"type":"Point","coordinates":[23.79104,38.01509]}},{"street":"Γορδίου","number":"2","area":"Αθήνα","postCode":"10441","position":{"type":"Point","coordinates":[23.71442,37.99117]}},{"street":"Ακαρνανίας","number":"6","area":"Χαλάνδρι","postCode":"15231","position":{"type":"Point","coordinates":[23.79762,38.00731]}},{"street":"Πλατεία Φιλικής Εταιρείας","number":"2","area":"Αθήνα","postCode":"10673","position":{"type":"Point","coordinates":[23.74027,37.97712]}},{"street":"Καβαλλότι","number":"6","area":"Αθήνα","postCode":"11742","position":{"type":"Point","coordinates":[23.72674,37.96812]}},{"street":"Ναυπλίου","number":"9","area":"Χαλάνδρι","postCode":"15231","position":{"type":"Point","coordinates":[23.79092,38.00536]}},{"street":"Αχιλλείου","area":"Μαρούσι","postCode":"15124","position":{"type":"Point","coordinates":[23.80128,38.0454]}},{"street":"Αντήνορος","number":"17","area":"Αθήνα","postCode":"11634","position":{"type":"Point","coordinates":[23.74882,37.97374]}},{"street":"Σιφναίων Αγγειοπλαστών","number":"13","area":"Μαρούσι","postCode":"15125","position":{"type":"Point","coordinates":[23.81147,38.04486]}},{"street":"Γρηγορίου Λαμπράκη","number":"20","area":"Χαλάνδρι","postCode":"15238","position":{"type":"Point","coordinates":[23.84529,38.03427]}},{"street":"Άρτης","number":"7","area":"Χαλάνδρι","postCode":"15238","position":{"type":"Point","coordinates":[23.84793,38.03562]}},{"street":"Νικολάου Γκύζη","number":"10","area":"Αθήνα","postCode":"11475","position":{"type":"Point","coordinates":[23.74816,37.98999]}},{"area":"Μαρούσι","postCode":"15123","position":{"type":"Point","coordinates":[23.78559,38.03546]}},{"street":"Έβρου","number":"1","area":"Αθήνα","postCode":"11528","position":{"type":"Point","coordinates":[23.75662,37.98108]}},{"street":"Αλιμπέρτη","area":"Αθήνα","postCode":"10556","position":{"type":"Point","coordinates":[23.72699,37.97358]}},{"street":"Καλτεζών","area":"Μαρούσι","postCode":"15125","position":{"type":"Point","coordinates":[23.80872,38.04441]}},{"street":"Ζηρίδη","area":"Μαρούσι","postCode":"15123","position":{"type":"Point","coordinates":[23.79543,38.03694]}},{"street":"Σαλαμίνος","number":"10","area":"Αθήνα","postCode":"10553","position":{"type":"Point","coordinates":[23.71849,37.97951]}},{"street":"Μαντζάκου","number":"4","area":"Αθήνα","postCode":"11473","position":{"type":"Point","coordinates":[23.74058,37.98804]}},{"street":"Ηπείρου στον Οικισμό Γεωργίου Παπανδρέου","number":"17","area":"Αθήνα","postCode":"11363","position":{"type":"Point","coordinates":[23.75505,38.00299]}},{"street":"Ανδρέα Κάλβου","number":"2","area":"Χαλάνδρι","postCode":"15232","position":{"type":"Point","coordinates":[23.79081,38.02342]}},{"street":"Δημουλίτσα Πάργας","number":"14","area":"Αθήνα","postCode":"11475","position":{"type":"Point","coordinates":[23.75278,37.99236]}},{"street":"Εκάβης","area":"Μαρούσι","postCode":"15122","position":{"type":"Point","coordinates":[23.78292,38.04583]}},{"street":"Μάρκου Μπότσαρη","number":"14","area":"Χαλάνδρι","postCode":"15233","position":{"type":"Point","coordinates":[23.80222,38.02721]}},{"street":"Καπιδάκη","number":"16","area":"Αθήνα","postCode":"10445","position":{"type":"Point","coordinates":[23.72658,38.0093]}},{"street":"Τζαφέρη","number":"16","area":"Αθήνα","postCode":"11854","position":{"type":"Point","coordinates":[23.70778,37.9746]}},{"street":"Λεωφόρος Κωνσταντίνου Καραμανλή","area":"Χαλκίδα","postCode":"34131, 34150","position":{"type":"Point","coordinates":[23.57982,38.46437]}},{"street":"Βασίλη Λογοθετίδη","number":"14","area":"Αθήνα","postCode":"11524","position":{"type":"Point","coordinates":[23.76365,37.99426]}},{"street":"Πανόρμου","number":"18","area":"Αθήνα","postCode":"11523","position":{"type":"Point","coordinates":[23.75845,37.98913]}},{"street":"Βάρβογλη","area":"Αθήνα","postCode":"11361","position":{"type":"Point","coordinates":[23.73999,38.00106]}},{"street":"Χαλκιδικής","number":"4","area":"Μαρούσι","postCode":"15122","position":{"type":"Point","coordinates":[23.79218,38.04687]}},{"street":"Ανδρέα Παπανδρέου","number":"35","area":"Μαρούσι","postCode":"15122","position":{"type":"Point","coordinates":[23.79107,38.04529]}},{"street":"Αρδηττού","area":"Αθήνα","postCode":"10557, 11635, 11636, 11743","position":{"type":"Point","coordinates":[23.73655,37.96811]}},{"street":"Εράτυρας","area":"Αθήνα","postCode":"10439","position":{"type":"Point","coordinates":[23.72199,37.9903]}},{"street":"Γιάνναρη","number":"13","area":"Αθήνα","postCode":"10445","position":{"type":"Point","coordinates":[23.72688,38.01001]}},{"street":"Πηνελόπης Δέλτα","number":"6","area":"Αθήνα","postCode":"11525","position":{"type":"Point","coordinates":[23.77376,37.99855]}},{"street":"Φιλιππότου","number":"20","area":"Αθήνα","postCode":"11632","position":{"type":"Point","coordinates":[23.74527,37.95926]}},{"street":"Σήφακα","area":"Αθήνα","postCode":"11143","position":{"type":"Point","coordinates":[23.72923,38.01912]}},{"street":"Μυκάλης","number":"17","area":"Μαρούσι","postCode":"15124","position":{"type":"Point","coordinates":[23.81121,38.05527]}},{"street":"Τάκη","number":"13","area":"Αθήνα","postCode":"10554","position":{"type":"Point","coordinates":[23.72401,37.97852]}},{"street":"Νερατζιωτίσσης","number":"10","area":"Μαρούσι","postCode":"15122","position":{"type":"Point","coordinates":[23.803,38.05484]}},{"street":"Μεσολογγίου","area":"Αθήνα","postCode":"10681","position":{"type":"Point","coordinates":[23.7347,37.98476]}},{"street":"Σίνα","number":"8","area":"Αθήνα","postCode":"10672","position":{"type":"Point","coordinates":[23.73499,37.97994]}},null,{"street":"Μαθιού Μάκκα","area":"Αθήνα","postCode":"11526","position":{"type":"Point","coordinates":[23.76774,37.99327]}},{"street":"Μουσαίου","area":"Αθήνα","postCode":"10555","position":{"type":"Point","coordinates":[23.72629,37.97391]}},{"street":"Χαντζέρη","number":"2","area":"Αθήνα","postCode":"11526","position":{"type":"Point","coordinates":[23.77179,37.99353]}},{"street":"Λακωνίας στην περιοχή Άνω Πάτημα","area":"Χαλάνδρι","postCode":"15238","position":{"type":"Point","coordinates":[23.85165,38.04378]}},{"street":"Κούμα","number":"15","area":"Αθήνα","postCode":"11471","position":{"type":"Point","coordinates":[23.74979,37.98688]}},{"street":"Κορώνειας στην περιοχή Λαμπρινής","number":"7","area":"Αθήνα","postCode":"11142","position":{"type":"Point","coordinates":[23.7437,38.02356]}},{"street":"Ραψάνης","number":"8","area":"Αθήνα","postCode":"11527","position":{"type":"Point","coordinates":[23.7646,37.98538]}},{"street":"Σερβίων","number":"20","area":"Αθήνα","postCode":"10447","position":{"type":"Point","coordinates":[23.71085,37.98477]}},{"street":"Αργολίδος","number":"1","area":"Αθήνα","postCode":"11523","position":{"type":"Point","coordinates":[23.76346,37.98877]}},{"street":"Ιωσήφ Δαμασκηνού","number":"14","area":"Αθήνα","postCode":"11471","position":{"type":"Point","coordinates":[23.74511,37.9862]}},{"street":"Κωνσταντίνου Δαβάκη","number":"19","area":"Πρέβεζα","postCode":"48100","position":{"type":"Point","coordinates":[20.74505,38.96478]}},{"street":"Πορφυρίωνος","number":"1","area":"Μαρούσι","postCode":"15126","position":{"type":"Point","coordinates":[23.82225,38.04036]}},{"street":"Μουσών στην περιοχή Φιλοπάππου","area":"Αθήνα","postCode":"11741, 11742, 11851","position":{"type":"Point","coordinates":[23.72252,37.96643]}},{"street":"Μιχελιδάκη","number":"5","area":"Αθήνα","postCode":"11526","position":{"type":"Point","coordinates":[23.77407,37.99271]}},{"street":"Αγίου Νεκταρίου στην περιοχή Κάτω Χαρβάτι","number":"19","area":"Παλλήνη","postCode":"15351","position":{"type":"Point","coordinates":[23.90328,38.00199]}},{"street":"Καραϊσκάκη Γεώργιου","area":"Αλεξάνδρεια","postCode":"59300","position":{"type":"Point","coordinates":[22.54783,40.56774]}},{"street":"Θεσπιέων","area":"Αθήνα","postCode":"10435","position":{"type":"Point","coordinates":[23.71686,37.98504]}},{"street":"Τιμάρχου","area":"Αθήνα","postCode":"11634","position":{"type":"Point","coordinates":[23.74786,37.9734]}},{"street":"Ιονίων Νήσων","number":"9","area":"Μαρούσι","postCode":"15124","position":{"type":"Point","coordinates":[23.80576,38.0479]}},{"street":"Σκαλκώτα","area":"Μαρούσι","postCode":"15126","position":{"type":"Point","coordinates":[23.82214,38.04175]}},{"street":"Πλατεία Αγίου Ανδρέου","area":"Αθήνα","postCode":"10445","position":{"type":"Point","coordinates":[23.72671,38.01038]}},{"street":"Λακωνίας","number":"6","area":"Αθήνα","postCode":"11523","position":{"type":"Point","coordinates":[23.76474,37.99092]}},{"street":"Εμπεδοκλέους","number":"9","area":"Αθήνα","postCode":"11635","position":{"type":"Point","coordinates":[23.74272,37.96649]}},{"street":"Ναζιανζού","number":"17","area":"Αθήνα","postCode":"11633","position":{"type":"Point","coordinates":[23.74687,37.96272]}},{"street":"Σορβόλου","number":"11","area":"Αθήνα","postCode":"11636","position":{"type":"Point","coordinates":[23.73564,37.96711]}},{"street":"Καρδίτσας","number":"15","area":"Θεσσαλονίκη","postCode":"54249","position":{"type":"Point","coordinates":[22.96958,40.59846]}},{"street":"Νερατζιωτίσσης","number":"1","area":"Μαρούσι","postCode":"15124","position":{"type":"Point","coordinates":[23.80408,38.05567]}},{"street":"Λασιθίου","area":"Αθήνα","postCode":"11526","position":{"type":"Point","coordinates":[23.76861,37.99]}},{"street":"Τρίτωνος","number":"4","area":"Αθήνα","postCode":"11851","position":{"type":"Point","coordinates":[23.7132,37.96938]}},{"street":"Πάροδος Καψάλη","number":"6","area":"Αγρίνιο","postCode":"30133","position":{"type":"Point","coordinates":[21.41358,38.62779]}},{"street":"Τσαμαδού","number":"10","area":"Αθήνα","postCode":"10683","position":{"type":"Point","coordinates":[23.73528,37.98761]}},{"street":"Πλαταιών","number":"7","area":"Αθήνα","postCode":"10435","position":{"type":"Point","coordinates":[23.71718,37.98011]}},{"street":"Μαιανδρουπόλεως","number":"11","area":"Αθήνα","postCode":"11524","position":{"type":"Point","coordinates":[23.75984,37.99254]}},{"street":"Άλυος","number":"13","area":"Αθήνα","postCode":"11528","position":{"type":"Point","coordinates":[23.75253,37.97623]}},{"street":"Ξενίας","number":"16","area":"Περιστέρι","postCode":"12137","position":{"type":"Point","coordinates":[23.6703,38.01744]}},{"street":"Ανταίου","number":"6","area":"Αθήνα","postCode":"11852","position":{"type":"Point","coordinates":[23.71349,37.96755]}},{"street":"Κόδρου","area":"Αθήνα","postCode":"10558","position":{"type":"Point","coordinates":[23.73241,37.97299]}},{"street":"Τριβωνιανού","number":"16","area":"Αθήνα","postCode":"11636","position":{"type":"Point","coordinates":[23.73442,37.96482]}},{"street":"Ανδρέα Μωραΐτη","number":"4","area":"Αθήνα","postCode":"11471","position":{"type":"Point","coordinates":[23.74294,37.98475]}},{"street":"Γιώργου Σεφέρη","number":"14","area":"Φυλή","postCode":"13342","position":{"type":"Point","coordinates":[23.6977,38.07442]}},{"street":"Λεωφόρος Συγγρού","number":"131","area":"Αθήνα","postCode":"11745","position":{"type":"Point","coordinates":[23.71581,37.95547]}},{"street":"Σουλιέ","number":"16","area":"Αθήνα","postCode":"11744","position":{"type":"Point","coordinates":[23.72173,37.95076]}},{"street":"Τάκη","number":"13","area":"Αθήνα","postCode":"10554","position":{"type":"Point","coordinates":[23.72401,37.97852]}},{"street":"Κλεάνθους","number":"9","area":"Αθήνα","postCode":"11854","position":{"type":"Point","coordinates":[23.71044,37.9765]}},{"street":"Θησείου","number":"11","area":"Αθήνα","postCode":"10555","position":{"type":"Point","coordinates":[23.72209,37.97676]}},{"street":"Μιαούλη στην περιοχή Άνω Πεύκης","number":"1","area":"Μαρούσι","postCode":"15121","position":{"type":"Point","coordinates":[23.80209,38.06693]}},{"street":"Αττικής","number":"9","area":"Χαλάνδρι","postCode":"15235","position":{"type":"Point","coordinates":[23.82423,38.03203]}},{"street":"Ορλάνδου","number":"1","area":"Αθήνα","postCode":"10445","position":{"type":"Point","coordinates":[23.72338,38.01176]}},{"street":"Ανοίξεως","number":"18","area":"Αθήνα","postCode":"10447","position":{"type":"Point","coordinates":[23.69753,37.99041]}},{"street":"Πλατεία Αγίων Ασωμάτων","area":"Αθήνα","postCode":"10553, 10554","position":{"type":"Point","coordinates":[23.72138,37.97776]}},{"street":"Μομφερράτου","area":"Αθήνα","postCode":"11474","position":{"type":"Point","coordinates":[23.74636,37.99088]}},{"street":"Λευκών Ορέων & Πάροδος Αττικής Οδού","area":"Χαλάνδρι","postCode":"15234","position":{"type":"Point","coordinates":[23.82218,38.03283]}},{"street":"Κοτυλαίου","area":"Αθήνα","postCode":"11364","position":{"type":"Point","coordinates":[23.74648,38.0055]}},{"street":"Σπάρτης","number":"15","area":"Αθήνα","postCode":"11252","position":{"type":"Point","coordinates":[23.73201,38.00292]}},{"street":"Πλατεία Μεταξουργείου","number":"2","area":"Αθήνα","postCode":"10437","position":{"type":"Point","coordinates":[23.71982,37.98518]}},{"street":"Δραγατσανίου","number":"6","area":"Αθήνα","postCode":"10559","position":{"type":"Point","coordinates":[23.7308,37.97965]}},{"street":"Τιμοκρέοντος","number":"3","area":"Αθήνα","postCode":"11745","position":{"type":"Point","coordinates":[23.7171,37.95378]}},{"street":"Παιάνων","number":"10","area":"Αθήνα","postCode":"11363","position":{"type":"Point","coordinates":[23.74778,38.0017]}},{"street":"Ερμιόνης","area":"Αθήνα","postCode":"11635","position":{"type":"Point","coordinates":[23.7471,37.97093]}},{"street":"Πασσώβ","area":"Αθήνα","postCode":"11141, 11255","position":{"type":"Point","coordinates":[23.74191,38.01355]}},{"street":"Αγίου Δημητρίου Όπλων","number":"6","area":"Αθήνα","postCode":"10445","position":{"type":"Point","coordinates":[23.72186,38.00943]}},{"street":"Μαυρομματαίων","number":"20","area":"Αθήνα","postCode":"10682","position":{"type":"Point","coordinates":[23.73235,37.99141]}},{"street":"Κατερίνης","area":"Αθήνα","postCode":"11855","position":{"type":"Point","coordinates":[23.70719,37.97741]}},{"street":"Σωσιγένους","number":"17","area":"Αθήνα","postCode":"11632","position":{"type":"Point","coordinates":[23.74745,37.95733]}},{"street":"Λίνδου","area":"Αθήνα","postCode":"11476","position":{"type":"Point","coordinates":[23.75269,37.99924]}},{"street":"Ιωάννη Χατζηδάκη","number":"14","area":"Αθήνα","postCode":"11144","position":{"type":"Point","coordinates":[23.72966,38.01374]}},{"street":"Διονύσου","number":"6","area":"Αθήνα","postCode":"10442","position":{"type":"Point","coordinates":[23.70542,37.99138]}},{"street":"Μιχαήλ Βόδα","number":"6","area":"Αθήνα","postCode":"10439","position":{"type":"Point","coordinates":[23.72494,37.98962]}},{"street":"Παξών","number":"1","area":"Μαρούσι","postCode":"15126","position":{"type":"Point","coordinates":[23.82129,38.03704]}},{"street":"Τρυγόνος","number":"6","area":"Αθήνα","postCode":"11364","position":{"type":"Point","coordinates":[23.74556,38.00621]}},{"street":"Ηρώων Πολυτεχνείου","number":"15","area":"Χαλάνδρι","postCode":"15231","position":{"type":"Point","coordinates":[23.79342,38.00606]}},{"street":"Ηρακλείτου","number":"7","area":"Αθήνα","postCode":"10673","position":{"type":"Point","coordinates":[23.73954,37.97796]}},{"street":"Ερασινίδου","number":"10","area":"Αθήνα","postCode":"11632","position":{"type":"Point","coordinates":[23.74594,37.95836]}},{"street":"Τσακάλωφ","number":"3","area":"Μαρούσι","postCode":"15126","position":{"type":"Point","coordinates":[23.82544,38.0562]}},{"street":"Πολυτεχνείου","area":"Αθήνα","postCode":"10433","position":{"type":"Point","coordinates":[23.72989,37.98806]}},{"street":"Κρωπίας","area":"Αθήνα","postCode":"10444","position":{"type":"Point","coordinates":[23.71806,37.99001]}},{"street":"Παρνασσού","area":"Χαλάνδρι","postCode":"15234","position":{"type":"Point","coordinates":[23.82431,38.0256]}},{"street":"Ναυαρίνου","number":"15","area":"Χαλάνδρι","postCode":"15232","position":{"type":"Point","coordinates":[23.79223,38.02071]}},{"street":"Ατρέως","number":"6","area":"Χαλάνδρι","postCode":"15238","position":{"type":"Point","coordinates":[23.83973,38.03217]}},{"street":"Λασσάνη","number":"5","area":"Αθήνα","postCode":"11743","position":{"type":"Point","coordinates":[23.72823,37.96149]}},{"street":"Κυβέλης στην περιοχή Γαργηττός","number":"4","area":"Παλλήνη","postCode":"15344","position":{"type":"Point","coordinates":[23.84272,38.0232]}},{"street":"Ναρκίσσων","number":"5","area":"Χαλάνδρι","postCode":"15233","position":{"type":"Point","coordinates":[23.80872,38.02826]}},{"street":"Αππιανού","area":"Αθήνα","postCode":"11633","position":{"type":"Point","coordinates":[23.75172,37.96798]}},{"street":"Στρατηγού Κοντούλη","area":"Αθήνα","postCode":"11742","position":{"type":"Point","coordinates":[23.72698,37.96558]}},{"street":"Εκάλης","number":"16","area":"Κηφισιά","postCode":"14561","position":{"type":"Point","coordinates":[23.8136,38.08438]}},{"street":"Λεωφόρος Παναγιώτη Κανελλοπούλου","number":"3","area":"Αθήνα","postCode":"11527","position":{"type":"Point","coordinates":[23.77913,37.98873]}},{"street":"Σκαμβωνίδων","number":"18","area":"Αθήνα","postCode":"11853","position":{"type":"Point","coordinates":[23.7086,37.97055]}},{"street":"Παξών","number":"1","area":"Χαλάνδρι","postCode":"15231","position":{"type":"Point","coordinates":[23.79234,38.0122]}},{"street":"Νεοφύτου Δούκα","area":"Αθήνα","postCode":"10674","position":{"type":"Point","coordinates":[23.74213,37.97584]}},{"street":"Λεβαδείας","number":"7","area":"Αθήνα","postCode":"11527","position":{"type":"Point","coordinates":[23.76753,37.98585]}},{"street":"Τραυλαντώνη","number":"1","area":"Αθήνα","postCode":"11364","position":{"type":"Point","coordinates":[23.74012,38.0082]}},{"street":"Τριφυλίας","number":"20","area":"Αθήνα","postCode":"11524","position":{"type":"Point","coordinates":[23.76056,37.99371]}},{"street":"Θεόδωρου Λάσκου","number":"1","area":"Χαλάνδρι","postCode":"15234","position":{"type":"Point","coordinates":[23.81741,38.02053]}},{"street":"Αγίας Λαύρας","number":"15","area":"Αθήνα","postCode":"11141","position":{"type":"Point","coordinates":[23.7394,38.01708]}},{"street":"Ροδοδάφνης","number":"5","area":"Χαλάνδρι","postCode":"15233","position":{"type":"Point","coordinates":[23.81107,38.02837]}},{"street":"Λεωφόρος Κηφισίας","number":"12","area":"Μαρούσι","postCode":"15125","position":{"type":"Point","coordinates":[23.797,38.03504]}},{"street":"Σπευσίππου","number":"1","area":"Αθήνα","postCode":"10675","position":{"type":"Point","coordinates":[23.74178,37.97837]}},{"street":"Δροσοπηγής","number":"1","area":"Μαρούσι","postCode":"15126","position":{"type":"Point","coordinates":[23.81934,38.05552]}},{"street":"Εξηκίου","number":"11","area":"Αθήνα","postCode":"10440","position":{"type":"Point","coordinates":[23.72383,37.99273]}},{"street":"Πραξαγόρου","number":"1","area":"Αθήνα","postCode":"11745","position":{"type":"Point","coordinates":[23.72007,37.95644]}},{"street":"Στρ. Τρίγκα","number":"4","area":"Αθήνα","postCode":"11145","position":{"type":"Point","coordinates":[23.72469,38.01843]}},{"street":"Κασταλίας","area":"Αθήνα","postCode":"11363","position":{"type":"Point","coordinates":[23.74368,38.00078]}},{"street":"Ρέας","number":"18","area":"Μαρούσι","postCode":"15122","position":{"type":"Point","coordinates":[23.78733,38.04975]}},{"street":"Σερβιανών","number":"7","area":"Μαρούσι","postCode":"15126","position":{"type":"Point","coordinates":[23.82419,38.04233]}},{"street":"Σφακίων","number":"8","area":"Αθήνα","postCode":"10439","position":{"type":"Point","coordinates":[23.72254,37.98995]}},{"street":"Πανόρμου","number":"18","area":"Αθήνα","postCode":"11523","position":{"type":"Point","coordinates":[23.75845,37.98913]}},{"street":"Μαντζάκου","number":"3","area":"Αθήνα","postCode":"11473","position":{"type":"Point","coordinates":[23.74084,37.98768]}},{"street":"Σεκούνδου","number":"10","area":"Αθήνα","postCode":"11143","position":{"type":"Point","coordinates":[23.73893,38.02616]}},{"street":"Κουμουνδούρου","area":"Χαλάνδρι","postCode":"15234, 15238","position":{"type":"Point","coordinates":[23.83606,38.02231]}},{"street":"Ναυάρχου Ηλιοπούλου","number":"14","area":"Ωρωπός","postCode":"19011","position":{"type":"Point","coordinates":[23.69714,38.25154]}},{"street":"Γουβέλη","number":"5","area":"Αθήνα","postCode":"11744","position":{"type":"Point","coordinates":[23.7273,37.95752]}},{"street":"Αντιγόνης","number":"6","area":"Αθήνα","postCode":"10442","position":{"type":"Point","coordinates":[23.69885,37.99367]}},{"street":"Μυλλέρου","number":"2","area":"Αθήνα","postCode":"10436","position":{"type":"Point","coordinates":[23.72071,37.98095]}},{"street":"Πάροδος Πασαθάν & Τριδήμα","area":"Αθήνα","postCode":"10442","position":{"type":"Point","coordinates":[23.7026,37.99276]}},{"street":"Ανεμώνης","area":"Διόνυσος","postCode":"14572","position":{"type":"Point","coordinates":[23.86195,38.11069]}},{"street":"Φρειδερίκου Τσέντνερ","number":"13","area":"Αθήνα","postCode":"11525","position":{"type":"Point","coordinates":[23.77611,37.99704]}},{"street":"Δάφνης","area":"Διόνυσος","postCode":"14572","position":{"type":"Point","coordinates":[23.86615,38.11638]}},{"street":"Δεστούνη","number":"17","area":"Αθήνα","postCode":"11143","position":{"type":"Point","coordinates":[23.72685,38.02017]}},{"street":"Επιμηθέως","area":"Αθήνα","postCode":"11636","position":{"type":"Point","coordinates":[23.74214,37.96468]}},{"street":"Λεωσθένους","area":"Αθήνα","postCode":"11631","position":{"type":"Point","coordinates":[23.73699,37.95665]}},{"street":"Δημητρίου Μόσχα","number":"16","area":"Μαρούσι","postCode":"15124","position":{"type":"Point","coordinates":[23.8037,38.0533]}},{"street":"Κερασιάς","number":"4","area":"Χαλάνδρι","postCode":"15238","position":{"type":"Point","coordinates":[23.84541,38.03363]}},{"street":"Διγενή Ακρίτα","area":"Χαλάνδρι","postCode":"15238","position":{"type":"Point","coordinates":[23.84531,38.03526]}},{"street":"Κλυμένης","area":"Αθήνα","postCode":"10445","position":{"type":"Point","coordinates":[23.72426,38.00273]}},{"street":"Γερανών","number":"8","area":"Αθήνα","postCode":"11364","position":{"type":"Point","coordinates":[23.74828,38.00723]}},{"street":"Απολλωνίου Ροδίου","number":"16","area":"Ηράκλειο","postCode":"71305","position":{"type":"Point","coordinates":[25.13382,35.32956]}},{"street":"Αγορακρίτου","number":"6","area":"Αθήνα","postCode":"10446","position":{"type":"Point","coordinates":[23.72595,37.99652]}},{"street":"Ζακύνθου","number":"5","area":"Αθήνα","postCode":"11361","position":{"type":"Point","coordinates":[23.73806,38.00076]}},{"street":"Καρέα","number":"12","area":"Αθήνα","postCode":"11636","position":{"type":"Point","coordinates":[23.73351,37.9655]}},{"street":"Χρήστου Μπόθου","number":"6","area":"Μαρούσι","postCode":"15125","position":{"type":"Point","coordinates":[23.81745,38.03814]}},{"street":"Τσάμη Καρατάσου","number":"14","area":"Αθήνα","postCode":"11742","position":{"type":"Point","coordinates":[23.72596,37.96708]}},{"street":"Ευδοκίας","number":"20","area":"Αθήνα","postCode":"11364","position":{"type":"Point","coordinates":[23.7462,38.00738]}},{"street":"Ασκληπιού","number":"2","area":"Αθήνα","postCode":"10680","position":{"type":"Point","coordinates":[23.73553,37.98213]}},{"street":"Μυκάλης","number":"4","area":"Μαρούσι","postCode":"15126","position":{"type":"Point","coordinates":[23.81179,38.05692]}},{"street":"Γιώργου Πρασσά","area":"Αθήνα","postCode":"10680","position":{"type":"Point","coordinates":[23.73793,37.98281]}},{"street":"Βαθέως","number":"8","area":"Αθήνα","postCode":"11522","position":{"type":"Point","coordinates":[23.75676,37.98902]}},{"street":"Επιδαύρου","number":"17","area":"Χαλάνδρι","postCode":"15233","position":{"type":"Point","coordinates":[23.79618,38.02615]}},{"street":"Σκαραμαγκά","number":"5","area":"Αθήνα","postCode":"10433","position":{"type":"Point","coordinates":[23.73022,37.9907]}},{"street":"Δαμιράλη","number":"8","area":"Αθήνα","postCode":"11744","position":{"type":"Point","coordinates":[23.73121,37.95636]}},{"street":"Καλπακίου","number":"13","area":"Μαρούσι","postCode":"15126","position":{"type":"Point","coordinates":[23.82732,38.05214]}},{"street":"Προς Περιφερειακή Λεωφόρο Υμηττού","area":"Χαλάνδρι","postCode":"15234, 15343","position":{"type":"Point","coordinates":[23.83273,38.02463]}},{"street":"Ανωνύμου","number":"4","area":"Αθήνα","postCode":"10442","position":{"type":"Point","coordinates":[23.70366,37.99238]}},{"street":"Στριφτόμπολα","number":"14","area":"Αθήνα","postCode":"11253","position":{"type":"Point","coordinates":[23.72897,38.00455]}},{"street":"Πατζίνη Μαντρά","number":"3","area":"Αθήνα","postCode":"11363","position":{"type":"Point","coordinates":[23.75178,38.00564]}},{"street":"Επιδαύρου","area":"Μαρούσι","postCode":"15125","position":{"type":"Point","coordinates":[23.80175,38.03688]}},null,{"street":"Φειδιππίδου","number":"6","area":"Αθήνα","postCode":"11526","position":{"type":"Point","coordinates":[23.76224,37.98616]}},{"street":"Αγίου Στεφάνου","number":"8","area":"Αθήνα","postCode":"11363","position":{"type":"Point","coordinates":[23.74765,37.99688]}},{"street":"Τάκη","number":"13","area":"Αθήνα","postCode":"10554","position":{"type":"Point","coordinates":[23.72401,37.97852]}},{"street":"Κ. Μπαλάνου","number":"6","area":"Αθήνα","postCode":"11636","position":{"type":"Point","coordinates":[23.73696,37.96758]}},{"street":"Βεργίνας","number":"10","area":"Χαλάνδρι","postCode":"15238","position":{"type":"Point","coordinates":[23.83729,38.02676]}},{"street":"Ίδα","number":"8","area":"Αθήνα","postCode":"11745","position":{"type":"Point","coordinates":[23.72012,37.95195]}},{"street":"Αναπήρων Πολέμου","area":"Αθήνα","postCode":"10676, 11521","position":{"type":"Point","coordinates":[23.74901,37.97988]}},{"street":"Αναβρυτής","number":"15","area":"Αθήνα","postCode":"11143","position":{"type":"Point","coordinates":[23.73101,38.02093]}},{"street":"Μιχαήλ Κόρακα","number":"5","area":"Αθήνα","postCode":"10445","position":{"type":"Point","coordinates":[23.72715,38.00681]}},{"street":"Αττική Οδός","area":"Μαρούσι","postCode":"15122, 15124, 15125, 15126","position":{"type":"Point","coordinates":[23.80334,38.04201]}},{"street":"Προς Παράδρομο Κηφισίας","area":"Μαρούσι","postCode":"15123","position":{"type":"Point","coordinates":[23.79235,38.03028]}},{"street":"Προδίκου","area":"Αθήνα","postCode":"10435","position":{"type":"Point","coordinates":[23.71535,37.98016]}},{"street":"Ζαλοκώστα","area":"Αθήνα","postCode":"10671","position":{"type":"Point","coordinates":[23.73691,37.97665]}},{"street":"Νικηφόρου Ουρανού","number":"17","area":"Αθήνα","postCode":"11471","position":{"type":"Point","coordinates":[23.74054,37.98433]}},{"street":"Βλαχοπούλου","area":"Αθήνα","postCode":"11471, 11472","position":{"type":"Point","coordinates":[23.74795,37.98838]}},{"street":"Ψυχάρη","number":"5","area":"Αθήνα","postCode":"11141","position":{"type":"Point","coordinates":[23.74073,38.0155]}},{"street":"Λυσίου","number":"19","area":"Αθήνα","postCode":"10556","position":{"type":"Point","coordinates":[23.72901,37.97332]}},{"street":"Τροφωνίου","number":"1","area":"Αθήνα","postCode":"10440","position":{"type":"Point","coordinates":[23.72254,37.99437]}},{"street":"Ανταίου","number":"3","area":"Μαρούσι","postCode":"15122","position":{"type":"Point","coordinates":[23.79857,38.05992]}},{"street":"Λαζαράδων","number":"10","area":"Αθήνα","postCode":"11363","position":{"type":"Point","coordinates":[23.74658,38.00066]}},{"street":"Ηρώδου Αττικού","area":"Αθήνα","postCode":"10674","position":{"type":"Point","coordinates":[23.74011,37.9745]}},{"street":"Βρισηίδος","number":"5","area":"Αθήνα","postCode":"11743","position":{"type":"Point","coordinates":[23.7328,37.96415]}},{"street":"Γεωργιάδου","area":"Αθήνα","postCode":"10445","position":{"type":"Point","coordinates":[23.72698,38.00725]}},{"street":"Τσίλλερ","number":"19","area":"Αθήνα","postCode":"11144","position":{"type":"Point","coordinates":[23.73462,38.01684]}},{"street":"Ανδρέα Κάλβου","area":"Μαρούσι","postCode":"15126","position":{"type":"Point","coordinates":[23.82616,38.0426]}},{"street":"Κορυτσάς στην περιοχή Πολυδρόσου","number":"17","area":"Χαλάνδρι","postCode":"15125","position":{"type":"Point","coordinates":[23.81574,38.03235]}},{"street":"Κόσσου","area":"Αθήνα","postCode":"11144","position":{"type":"Point","coordinates":[23.73273,38.01927]}},{"street":"Ιάκχου","number":"11","area":"Αθήνα","postCode":"11854","position":{"type":"Point","coordinates":[23.7133,37.97952]}},{"street":"Κυνέτου","number":"2","area":"Αθήνα","postCode":"10555","position":{"type":"Point","coordinates":[23.72351,37.9761]}},{"street":"Κλεψύδρας","area":"Αθήνα","postCode":"10555, 10556","position":{"type":"Point","coordinates":[23.72663,37.97355]}},{"street":"Λύκωνος","number":"5","area":"Αθήνα","postCode":"11631","position":{"type":"Point","coordinates":[23.74233,37.95659]}},{"street":"Μυκηνών","number":"8","area":"Αθήνα","postCode":"10435","position":{"type":"Point","coordinates":[23.71554,37.98166]}},{"street":"Βαρδουνιώτη","number":"6","area":"Αθήνα","postCode":"11522","position":{"type":"Point","coordinates":[23.75643,37.99253]}},{"street":"Θουκυδίδου","number":"11","area":"Χαλάνδρι","postCode":"15232","position":{"type":"Point","coordinates":[23.79888,38.02004]}},{"street":"Ηλία Μόσχου","area":"Αθήνα","postCode":"11526","position":{"type":"Point","coordinates":[23.76883,37.99311]}},{"street":"Μέσης","number":"3","area":"Μαρούσι","postCode":"15124","position":{"type":"Point","coordinates":[23.79748,38.04017]}},{"street":"Καραμανλάκη","number":"18","area":"Αθήνα","postCode":"11253","position":{"type":"Point","coordinates":[23.73323,38.00548]}},{"street":"Σουλίου","number":"4","area":"Χαλάνδρι","postCode":"15232","position":{"type":"Point","coordinates":[23.79447,38.01711]}},{"street":"Περικλέους","number":"13","area":"Χαλάνδρι","postCode":"15232","position":{"type":"Point","coordinates":[23.7979,38.01886]}},{"street":"Θέτιδος","number":"6","area":"Χαλάνδρι","postCode":"15232","position":{"type":"Point","coordinates":[23.80125,38.01925]}},{"street":"Τσαγκαράδας","area":"Αθήνα","postCode":"11523","position":{"type":"Point","coordinates":[23.76149,37.9922]}},{"street":"Δικωνύμου","number":"10","area":"Αθήνα","postCode":"11524","position":{"type":"Point","coordinates":[23.76059,38.00207]}},{"street":"Απειράνθου","number":"10","area":"Μαρούσι","postCode":"15126","position":{"type":"Point","coordinates":[23.82173,38.0383]}},{"street":"Σαρρή","number":"12","area":"Αθήνα","postCode":"10553","position":{"type":"Point","coordinates":[23.72352,37.97969]}},{"street":"Ρήγα Φεραίου","number":"12","area":"Χαλκίδα","postCode":"34131","position":{"type":"Point","coordinates":[23.58512,38.4748]}},{"street":"Ησιόδου","area":"Μαρούσι","postCode":"15123","position":{"type":"Point","coordinates":[23.7965,38.03755]}},{"street":"Μερόπης","number":"16","area":"Αθήνα","postCode":"10442","position":{"type":"Point","coordinates":[23.71013,37.99106]}},{"street":"Δομοκού","area":"Αθήνα","postCode":"10439, 10440, 10444, 10445","position":{"type":"Point","coordinates":[23.72135,37.99418]}},{"street":"Κολοκοτρώνη","number":"18","area":"Χαλάνδρι","postCode":"15233","position":{"type":"Point","coordinates":[23.79762,38.02248]}},{"street":"Κρήτης στον Οικισμό Γεωργίου Παπανδρέου","number":"13","area":"Αθήνα","postCode":"11363","position":{"type":"Point","coordinates":[23.75707,38.00384]}},{"street":"Φώσκολου","area":"Χαλάνδρι","postCode":"15232, 15233","position":{"type":"Point","coordinates":[23.79374,38.02312]}},{"street":"Αττική Οδός","area":"Μαρούσι","postCode":"15122, 15124, 15125, 15126","position":{"type":"Point","coordinates":[23.80334,38.04201]}},{"street":"Σουρμελή","number":"7","area":"Αθήνα","postCode":"10438","position":{"type":"Point","coordinates":[23.72565,37.98898]}},